company,legal_name,dba_name,email,phone,city,state,zip,address,usdot,power_units,truck_units,metro,nearest_hub,mi_nearest,mi_sac,mi_oak,lat,lng,carrier_operation,classdef,safer_url,source
STAN ALLES TRANSPORT,STAN ALLES,STAN ALLES TRANSPORT,stanley@stanallestransport.com,5598429424,FRESNO,CA,93723,4601 N JAMESON AVE,2662,14,14,Bay,Oakland,145.1,149.4,145.1,36.79348,-119.95682,A,AUTHORIZED FOR HIRE,https://safer.fmcsa.dot.gov/query.asp?searchtype=ANY&query_type=queryCarrierSnapshot&query_param=USDOT&query_string=2662,fmcsa_census_az4n-8mr2
BUD ANTLE INC,BUD ANTLE INC,,carlos.meza@dole.com,8317545288,MONTEREY,CA,93940,2959 MONTEREY SALINAS HWY,2934,86,59,Bay,Oakland,88.2,140.0,88.2,36.57469,-121.84085,A,"PRIVATE PROPERTY;PRIVATE PASSENGER, BUSINESS",https://safer.fmcsa.dot.gov/query.asp?searchtype=ANY&query_type=queryCarrierSnapshot&query_param=USDOT&query_string=2934,fmcsa_census_az4n-8mr2
TREVIS BERRY TRANSPORTATION,TREVIS BERRY TRANSPORTATION,,info@trevisberry.com,4088428238,GILROY,CA,95020,655 E LUCHESSA AVE,2955,49,49,San Jose,Oakland,67.1,108.1,67.1,37.01842,-121.55425,A,AUTHORIZED FOR HIRE,https://safer.fmcsa.dot.gov/query.asp?searchtype=ANY&query_type=queryCarrierSnapshot&query_param=USDOT&query_string=2955,fmcsa_census_az4n-8mr2
CROWN WORLDWIDE MOVING AND STORAGE LLC,CROWN WORLDWIDE MOVING AND STORAGE LLC,,chris.stathis@goarmstrong.com,5106144105,UNION CITY,CA,94587,32001 DOWE AVE,2970,25,25,Bay,Oakland,19.6,73.4,19.6,37.60316,-122.01864,A,AUTHORIZED FOR HIRE,https://safer.fmcsa.dot.gov/query.asp?searchtype=ANY&query_type=queryCarrierSnapshot&query_param=USDOT&query_string=2970,fmcsa_census_az4n-8mr2
COLONIAL VAN & STORAGE INC,COLONIAL VAN & STORAGE INC,,dawn@colonialvan.com,9163811372,SACRAMENTO,CA,95828,6001 88TH ST,2973,31,31,Sacramento,Sacramento,8.3,8.3,67.1,38.48881,-121.39584,A,PRIVATE PROPERTY;AUTHORIZED FOR HIRE,https://safer.fmcsa.dot.gov/query.asp?searchtype=ANY&query_type=queryCarrierSnapshot&query_param=USDOT&query_string=2973,fmcsa_census_az4n-8mr2
BRIARWOOD FARMS & RAINBOW FARMS,VALLEY FRESH FOODS INC,BRIARWOOD FARMS & RAINBOW FARMS,rbettencourt@vffi.com,2094852605,TURLOCK,CA,95380,3600 E LINWOOD AVE,21862,10,10,Stockton,Oakland,79.7,83.6,79.7,37.4744,-120.87592,C,PRIVATE PROPERTY,https://safer.fmcsa.dot.gov/query.asp?searchtype=ANY&query_type=queryCarrierSnapshot&query_param=USDOT&query_string=21862,fmcsa_census_az4n-8mr2
TERESI TRUCKING LLC,TERESI TRUCKING LLC,,atteresi@teresitrucking.com,2093682472,LODI,CA,95240,900 ONE HALF EAST VICTOR RD,30477,28,28,Stockton,Sacramento,37.4,37.4,65.0,38.11439,-121.14466,A,AUTHORIZED FOR HIRE,https://safer.fmcsa.dot.gov/query.asp?searchtype=ANY&query_type=queryCarrierSnapshot&query_param=USDOT&query_string=30477,fmcsa_census_az4n-8mr2
YANDELL TRUCKAWAY INC,YANDELL TRUCKAWAY INC,,jrodrigues@yandelltruckaway.com,9259889800,BENICIA,CA,94510,360 INDUSTRIAL COURT STE A,30503,55,55,Bay,Oakland,21.6,48.2,21.6,38.09807,-122.13594,A,AUTHORIZED FOR HIRE,https://safer.fmcsa.dot.gov/query.asp?searchtype=ANY&query_type=queryCarrierSnapshot&query_param=USDOT&query_string=30503,fmcsa_census_az4n-8mr2
WALLACE CASCADE TRANSPORT INC,WALLACE CASCADE TRANSPORT INC,,susan@wallacetransport.com,2093820131,PLANADA,CA,95365,9290 E HWY 140,30520,2,2,Sacramento,Sacramento,108.3,108.3,113.1,37.33111,-120.29482,A,AUTHORIZED FOR HIRE,https://safer.fmcsa.dot.gov/query.asp?searchtype=ANY&query_type=queryCarrierSnapshot&query_param=USDOT&query_string=30520,fmcsa_census_az4n-8mr2
TEICHERT AGGREGATES TEICHERT READMIX TEICHERT CONSTRUCTION,A TEICHERT & SON INC,TEICHERT AGGREGATES TEICHERT READMIX TEICHERT CONSTRUCTION,agomez@teichert.com,2099836624,SACRAMENTO,CA,95864,3500 AMERICAN RIVER DRIVE,41280,562,562,Sacramento,Sacramento,6.4,6.4,72.6,38.58405,-121.37585,A,PRIVATE PROPERTY,https://safer.fmcsa.dot.gov/query.asp?searchtype=ANY&query_type=queryCarrierSnapshot&query_param=USDOT&query_string=41280,fmcsa_census_az4n-8mr2
SCARR MOVING & STORAGE INC,SCARR MOVING & STORAGE INC,,maryscarr@comcast.net,8314242784,SALINAS,CA,93901,1353 DAYTON ST,44159,9,9,Bay,Oakland,88.2,134.6,88.2,36.63634,-121.62398,A,AUTHORIZED FOR HIRE,https://safer.fmcsa.dot.gov/query.asp?searchtype=ANY&query_type=queryCarrierSnapshot&query_param=USDOT&query_string=44159,fmcsa_census_az4n-8mr2
ARROW TRUCKING CO OF CALIFORNIA INC,ARROW TRUCKING CO OF CALIFORNIA INC,,rich@arrowtrucking.net,5104294820,UNION CITY,CA,94587,30078 EIGENBRODT WAY,45159,2,2,Bay,Oakland,19.6,73.4,19.6,37.60316,-122.01864,C,AUTHORIZED FOR HIRE,https://safer.fmcsa.dot.gov/query.asp?searchtype=ANY&query_type=queryCarrierSnapshot&query_param=USDOT&query_string=45159,fmcsa_census_az4n-8mr2
ARNAUDO BROTHERS TRANSPORT INC,ARNAUDO BROTHERS TRANSPORT INC,,arnaudobrothersinc17@gmail.com,2098350406,TRACY,CA,95304,16505 SOUTH TRACY BLVD,45168,10,10,Stockton,Oakland,48.1,63.1,48.1,37.6711,-121.40656,A,PRIVATE PROPERTY;EXEMPT FOR HIRE,https://safer.fmcsa.dot.gov/query.asp?searchtype=ANY&query_type=queryCarrierSnapshot&query_param=USDOT&query_string=45168,fmcsa_census_az4n-8mr2
CARDINALE MOVING & STORAGE INC,CARDINALE MOVING & STORAGE INC,,info@cardinalemoving.com,8316324100,CASTROVILLE,CA,95012,11360 COMMERCIAL PKWY,45193,19,19,Bay,Oakland,75.9,125.0,75.9,36.78448,-121.75905,A,AUTHORIZED FOR HIRE,https://safer.fmcsa.dot.gov/query.asp?searchtype=ANY&query_type=queryCarrierSnapshot&query_param=USDOT&query_string=45193,fmcsa_census_az4n-8mr2
TAHOE BASIN CONTAINER SERVICE INC,TAHOE BASIN CONTAINER SERVICE INC,,ron@southtahoerefuse.com,5305414353,SOUTH LAKE TAHOE,CA,96150,2140 RUTH AVE,54056,10,10,Sacramento,Sacramento,82.5,82.5,143.0,38.86982,-120.00859,A,PRIVATE PROPERTY,https://safer.fmcsa.dot.gov/query.asp?searchtype=ANY&query_type=queryCarrierSnapshot&query_param=USDOT&query_string=54056,fmcsa_census_az4n-8mr2
UNITED DRAYAGE COMPANY,UNITED DRAYAGE COMPANY,,mlau@hfsnet.com,5106147100,SAN LEANDRO,CA,94577,2964 ALVARADO ST UNIT K,57332,3,3,Bay,Oakland,8.5,70.3,8.5,37.71328,-122.16735,A,AUTHORIZED FOR HIRE,https://safer.fmcsa.dot.gov/query.asp?searchtype=ANY&query_type=queryCarrierSnapshot&query_param=USDOT&query_string=57332,fmcsa_census_az4n-8mr2
SCHNITZER STEEL PRODUCTS,SCHNITZER STEEL INDUSTRIES INC,SCHNITZER STEEL PRODUCTS,dmedeiros@rdus.com,5104526360,OAKLAND,CA,94607,1101 EMBARCADERO WEST,59696,55,55,Bay,Oakland,1.7,69.2,1.7,37.80721,-122.3015,A,PRIVATE PROPERTY,https://safer.fmcsa.dot.gov/query.asp?searchtype=ANY&query_type=queryCarrierSnapshot&query_param=USDOT&query_string=59696,fmcsa_census_az4n-8mr2
POZAS BROS TRUCKING CO INC,POZAS BROS TRUCKING CO INC,,gpmaillo@sbcglobal.net,5107429939,NEWARK,CA,94560,8130 ENTERPRISE DRIVE,60701,40,40,Bay,Oakland,24.5,80.0,24.5,37.50451,-122.03292,B,AUTHORIZED FOR HIRE,https://safer.fmcsa.dot.gov/query.asp?searchtype=ANY&query_type=queryCarrierSnapshot&query_param=USDOT&query_string=60701,fmcsa_census_az4n-8mr2
SHEEDY DRAYAGE CO,SHEEDY DRAYAGE CO,,ddemartini@sheedycrane.com,4156487171,SAN FRANCISCO,CA,94107,1215 MICHIGAN ST,60740,20,20,Bay,Oakland,7.6,75.1,7.6,37.76046,-122.39972,A,AUTHORIZED FOR HIRE,https://safer.fmcsa.dot.gov/query.asp?searchtype=ANY&query_type=queryCarrierSnapshot&query_param=USDOT&query_string=60740,fmcsa_census_az4n-8mr2
B C LAWSON DRAYAGE INC,B C LAWSON DRAYAGE INC,,patrick@lawsoninc.com,5107855100,HAYWARD,CA,94545,3402 ENTERPRISE AVE,62897,36,36,Bay,Oakland,15.8,75.7,15.8,37.6059,-122.12687,A,AUTHORIZED FOR HIRE,https://safer.fmcsa.dot.gov/query.asp?searchtype=ANY&query_type=queryCarrierSnapshot&query_param=USDOT&query_string=62897,fmcsa_census_az4n-8mr2
VEGETABLE GROWERS SUPPLY CO,VEGETABLE GROWERS SUPPLY CO,,accountingadmin@veggrow.com,8317594600,SALINAS,CA,93901,1360 MERRILL ST,68717,5,5,Bay,Oakland,88.2,134.6,88.2,36.63634,-121.62398,A,PRIVATE PROPERTY,https://safer.fmcsa.dot.gov/query.asp?searchtype=ANY&query_type=queryCarrierSnapshot&query_param=USDOT&query_string=68717,fmcsa_census_az4n-8mr2
URRUTIA RANCH 2018 REVOLCABLE TRUST,URRUTIA LIVESTOCK TRANSPORTATION,URRUTIA RANCH 2018 REVOLCABLE TRUST,williamterzian@gmail.com,5596465831,MADERA,CA,93626,43335 HWY 145 EAST,68734,2,2,Sacramento,Sacramento,144.9,144.9,151.0,37.04329,-119.69131,A,PRIVATE PROPERTY,https://safer.fmcsa.dot.gov/query.asp?searchtype=ANY&query_type=queryCarrierSnapshot&query_param=USDOT&query_string=68734,fmcsa_census_az4n-8mr2
TOBY'S TRUCKING INC,TOBY'S TRUCKING INC,,denise@tobystrucking.com,7077633867,PETALUMA,CA,94952,421 PAYRAN STREET,68745,94,94,Bay,Oakland,39.9,72.6,39.9,38.23455,-122.76038,C,MIGRANT;EXEMPT FOR HIRE,https://safer.fmcsa.dot.gov/query.asp?searchtype=ANY&query_type=queryCarrierSnapshot&query_param=USDOT&query_string=68745,fmcsa_census_az4n-8mr2
MARIN CHARTER AND TOURS,MARIN AIRPORTER,MARIN CHARTER AND TOURS,lawrencek@marinairporter.com,4152568833,SAN RAFAEL,CA,94901,8 LOVELL AVENUE,68748,18,0,Bay,Oakland,17.2,68.6,17.2,37.97814,-122.49761,A,AUTHORIZED FOR HIRE,https://safer.fmcsa.dot.gov/query.asp?searchtype=ANY&query_type=queryCarrierSnapshot&query_param=USDOT&query_string=68748,fmcsa_census_az4n-8mr2
TALLEY TRANSPORTATION,TALLEY TRANSPORTATION,,andrea@talleytrans.com,5596739014,MADERA,CA,93638,12325 ROAD 29,68751,21,21,Sacramento,Sacramento,132.9,132.9,133.6,37.04343,-120.03369,C,AUTHORIZED FOR HIRE,https://safer.fmcsa.dot.gov/query.asp?searchtype=ANY&query_type=queryCarrierSnapshot&query_param=USDOT&query_string=68751,fmcsa_census_az4n-8mr2
HENRIS ROOFING CO,HENRIS SUPPLY INC,HENRIS ROOFING CO,info@henrisroofing.com,7077631535,PETALUMA,CA,94952,741  PETALUMA BLVD SO,80219,6,6,Bay,Oakland,39.9,72.6,39.9,38.23455,-122.76038,C,PRIVATE PROPERTY,https://safer.fmcsa.dot.gov/query.asp?searchtype=ANY&query_type=queryCarrierSnapshot&query_param=USDOT&query_string=80219,fmcsa_census_az4n-8mr2
TIGER LINES LLC,TIGER LINES LLC,,jvanotti@tigerlines.com,,LODI,CA,95240,927 BLACK DIAMOND WAY,80289,265,265,Stockton,Sacramento,37.4,37.4,65.0,38.11439,-121.14466,A,AUTHORIZED FOR HIRE,https://safer.fmcsa.dot.gov/query.asp?searchtype=ANY&query_type=queryCarrierSnapshot&query_param=USDOT&query_string=80289,fmcsa_census_az4n-8mr2
PACIFIC STORAGE COMPANY,PACIFIC STORAGE COMPANY,,gtudor@pacificstorage.com,2093206600,STOCKTON,CA,95219,3439 BROOKSIDE ROAD #206,80356,5,5,Stockton,Sacramento,36.6,36.6,46.2,38.05173,-121.48304,A,AUTHORIZED FOR HIRE,https://safer.fmcsa.dot.gov/query.asp?searchtype=ANY&query_type=queryCarrierSnapshot&query_param=USDOT&query_string=80356,fmcsa_census_az4n-8mr2
FOSTER VAN LINES INC,FOSTER VAN LINES INC,,operations@fostervanlines.com,5102349131,RICHMOND,CA,94804,167 SOUTH SECOND STREET,80386,5,5,Bay,Oakland,8.6,65.0,8.6,37.91656,-122.34123,A,AUTHORIZED FOR HIRE,https://safer.fmcsa.dot.gov/query.asp?searchtype=ANY&query_type=queryCarrierSnapshot&query_param=USDOT&query_string=80386,fmcsa_census_az4n-8mr2
FOSTER FARMS,FOSTER POULTRY FARMS LLC,FOSTER FARMS,david.ramirez@fosterfarms.com,8003380342,LIVINGSTON,CA,95334,1333 S SWAN STREET,80403,180,128,Bay,Oakland,89.5,94.6,89.5,37.34731,-120.74263,A,PRIVATE PROPERTY;AUTHORIZED FOR HIRE,https://safer.fmcsa.dot.gov/query.asp?searchtype=ANY&query_type=queryCarrierSnapshot&query_param=USDOT&query_string=80403,fmcsa_census_az4n-8mr2
FERALLOY PDM STEEL SERVICE,PDM STEEL SERVICE CENTERS INC,FERALLOY PDM STEEL SERVICE,awillson@pdmsteel.com,9165134550,ELK GROVE,CA,95758,9245 LAGUNA SPRINGS DRIVE - SUITE 350,88387,86,86,Sacramento,Sacramento,11.0,11.0,62.2,38.42781,-121.4447,A,PRIVATE PROPERTY;AUTHORIZED FOR HIRE,https://safer.fmcsa.dot.gov/query.asp?searchtype=ANY&query_type=queryCarrierSnapshot&query_param=USDOT&query_string=88387,fmcsa_census_az4n-8mr2
CHRISTY VAULT COMPANY INC,CHRISTY VAULT COMPANY INC,,bchristensen@christyvault.com,6509941378,COLMA,CA,94014,1000 COLLINS AVE,95362,4,4,Bay,Oakland,12.4,80.4,12.4,37.69088,-122.44744,A,PRIVATE PROPERTY,https://safer.fmcsa.dot.gov/query.asp?searchtype=ANY&query_type=queryCarrierSnapshot&query_param=USDOT&query_string=95362,fmcsa_census_az4n-8mr2
BIGGE CRANE AND RIGGING CO,BIGGE CRANE AND RIGGING CO,,jcoenen@bigge.com,5106388100,SAN LEANDRO,CA,94577,10700 BIGGE STREET,95406,66,66,Bay,Oakland,8.5,70.3,8.5,37.71328,-122.16735,A,PRIVATE PROPERTY;AUTHORIZED FOR HIRE,https://safer.fmcsa.dot.gov/query.asp?searchtype=ANY&query_type=queryCarrierSnapshot&query_param=USDOT&query_string=95406,fmcsa_census_az4n-8mr2
BAR ALE INC,BAR ALE INC,,jgonzales@baraleinc.com,5304733333,WILLIAMS,CA,95987,1011 5TH STREET,95412,10,10,Sacramento,Sacramento,55.8,55.8,89.9,39.10513,-122.283,A,PRIVATE PROPERTY,https://safer.fmcsa.dot.gov/query.asp?searchtype=ANY&query_type=queryCarrierSnapshot&query_param=USDOT&query_string=95412,fmcsa_census_az4n-8mr2
BOLDEMANN CHOCOLATE INC,BOLDEMANN CHOCOLATE INC,,lamelampy@uc.bloomer.com,4154714300,UNION CITY,CA,94587,1515 PACIFIC ST,95426,4,4,Bay,Oakland,19.6,73.4,19.6,37.60316,-122.01864,C,PRIVATE PROPERTY;AUTHORIZED FOR HIRE,https://safer.fmcsa.dot.gov/query.asp?searchtype=ANY&query_type=queryCarrierSnapshot&query_param=USDOT&query_string=95426,fmcsa_census_az4n-8mr2
BUILDING MATERIAL DISTRIBUTORS INC,BUILDING MATERIAL DISTRIBUTORS INC,,ehs@bmdusa.com,8003563001,GALT,CA,95632,225 ELM AVE,95435,36,36,Sacramento,Sacramento,24.7,24.7,63.9,38.27445,-121.2592,A,PRIVATE PROPERTY;AUTHORIZED FOR HIRE,https://safer.fmcsa.dot.gov/query.asp?searchtype=ANY&query_type=queryCarrierSnapshot&query_param=USDOT&query_string=95435,fmcsa_census_az4n-8mr2
CALIFORNIA TANK LINES INC,CALIFORNIA TANK LINES INC,,ag@caltank.com,,STOCKTON,CA,95206,3105 SOUTH EL DORADO STREET,95462,11,1,Stockton,Sacramento,46.0,46.0,47.2,37.91885,-121.41743,A,AUTHORIZED FOR HIRE,https://safer.fmcsa.dot.gov/query.asp?searchtype=ANY&query_type=queryCarrierSnapshot&query_param=USDOT&query_string=95462,fmcsa_census_az4n-8mr2
CENTRAL COOLING COMPANY,CENTRAL COOLING COMPANY,,alang@westernprecooling.com,8317545107,CASTROVILLE,CA,95012,11233 PRESTON RD,95488,2,2,Bay,Oakland,75.9,125.0,75.9,36.78448,-121.75905,A,PRIVATE PROPERTY;AUTHORIZED FOR HIRE,https://safer.fmcsa.dot.gov/query.asp?searchtype=ANY&query_type=queryCarrierSnapshot&query_param=USDOT&query_string=95488,fmcsa_census_az4n-8mr2
SACRAMENTO AUTO TRUCK COMPANY INC,SACRAMENTO AUTO TRUCK COMPANY INC,,labozaich@comcast.net,9163714040,WEST SACRAMENTO,CA,95691,525 GALVESTON ST,105384,2,2,Sacramento,Sacramento,6.2,6.2,67.8,38.62795,-121.59329,A,AUTHORIZED FOR HIRE,https://safer.fmcsa.dot.gov/query.asp?searchtype=ANY&query_type=queryCarrierSnapshot&query_param=USDOT&query_string=105384,fmcsa_census_az4n-8mr2
RAUSSER BROS TRUCKING INC,RAUSSER BROS TRUCKING INC,,rausserbrostrucking@gmail.com,2097441000,GALT,CA,95632,10359 LIVE OAK AVE,105398,9,9,Sacramento,Sacramento,24.7,24.7,63.9,38.27445,-121.2592,A,AUTHORIZED FOR HIRE,https://safer.fmcsa.dot.gov/query.asp?searchtype=ANY&query_type=queryCarrierSnapshot&query_param=USDOT&query_string=105398,fmcsa_census_az4n-8mr2
RUMIANO CHEESE CO,RUMIANO CHEESE CO,,tony@rumianocheese.com,5309345438,WILLOWS,CA,95988,101 HARVEST DRIVE,105408,7,7,Sacramento,Sacramento,75.2,75.2,116.6,39.49165,-122.26208,A,PRIVATE PROPERTY;AUTHORIZED FOR HIRE,https://safer.fmcsa.dot.gov/query.asp?searchtype=ANY&query_type=queryCarrierSnapshot&query_param=USDOT&query_string=105408,fmcsa_census_az4n-8mr2
RALEYS,RALEY'S INC,RALEYS,rstandif@raleys.com,9169287742,SACRAMENTO,CA,95834,4061 GATEWAY PARK BLVD,105428,47,47,Sacramento,Sacramento,4.0,4.0,70.5,38.63565,-121.51842,A,PRIVATE PROPERTY,https://safer.fmcsa.dot.gov/query.asp?searchtype=ANY&query_type=queryCarrierSnapshot&query_param=USDOT&query_string=105428,fmcsa_census_az4n-8mr2
RADIAL TIRE WHOLESALE,RADIAL TIRE WHOLESALE,,ap@radtire.net,9163715190,WEST SACRAMENTO,CA,95691,3113 WEST CAPITOL AVE,105431,7,7,Sacramento,Sacramento,6.2,6.2,67.8,38.62795,-121.59329,A,PRIVATE PROPERTY,https://safer.fmcsa.dot.gov/query.asp?searchtype=ANY&query_type=queryCarrierSnapshot&query_param=USDOT&query_string=105431,fmcsa_census_az4n-8mr2
PONDEROSA FARMS INC,PONDEROSA FARMS INC,,ponderosafarmsinc23@yahoo.com,9169911665,ELVERTA,CA,95626,8051 RIO LINDA BLVD,105438,3,3,Sacramento,Sacramento,10.6,10.6,77.6,38.73315,-121.46817,C,AUTHORIZED FOR HIRE,https://safer.fmcsa.dot.gov/query.asp?searchtype=ANY&query_type=queryCarrierSnapshot&query_param=USDOT&query_string=105438,fmcsa_census_az4n-8mr2
PACIFIC FLOORING SUPPLY INC,PACIFIC FLOORING SUPPLY INC,,jcjrea@sbcglobal.net,9164420491,SACRAMENTO,CA,95811,1527 NORTH C STREET,105458,3,3,Sacramento,Sacramento,0.9,0.9,68.9,38.58323,-121.4781,A,PRIVATE PROPERTY,https://safer.fmcsa.dot.gov/query.asp?searchtype=ANY&query_type=queryCarrierSnapshot&query_param=USDOT&query_string=105458,fmcsa_census_az4n-8mr2
ORCHARD MACHINERY CORPORATION,ORCHARD MACHINERY CORPORATION,,s.underwood@shakermaker.com,5306732822,YUBA CITY,CA,95993,2700 COLUSA HIGHWAY,105477,42,42,Sacramento,Sacramento,36.0,36.0,93.9,39.0825,-121.68011,A,PRIVATE PROPERTY,https://safer.fmcsa.dot.gov/query.asp?searchtype=ANY&query_type=queryCarrierSnapshot&query_param=USDOT&query_string=105477,fmcsa_census_az4n-8mr2
MEEKS,ACS CCM LLC,MEEKS,jessica.watkins@acs-lbm.com,9165854575,ELK GROVE,CA,95624,10547 E STOCKTON BLVD,105548,41,41,Sacramento,Sacramento,14.4,14.4,67.5,38.42751,-121.3149,C,PRIVATE PROPERTY,https://safer.fmcsa.dot.gov/query.asp?searchtype=ANY&query_type=queryCarrierSnapshot&query_param=USDOT&query_string=105548,fmcsa_census_az4n-8mr2
B T MANCINI CO INC,B T MANCINI CO INC,,sheila.rhoads@btmancini.com,4089427900,SACRAMENTO,CA,95826,8561 23RD AVE,105559,6,6,Sacramento,Sacramento,6.8,6.8,70.5,38.54375,-121.37769,A,PRIVATE PROPERTY,https://safer.fmcsa.dot.gov/query.asp?searchtype=ANY&query_type=queryCarrierSnapshot&query_param=USDOT&query_string=105559,fmcsa_census_az4n-8mr2
MT LASSEN MOTOR TRANSIT INC,MT LASSEN MOTOR TRANSIT INC,,info@mtlassentransit.com,5305292722,RED BLUFF,CA,96080,22503 SUNBRIGHT AVE,105566,5,3,Sacramento,Sacramento,120.2,120.2,164.4,40.18189,-122.3771,A,"PRIVATE PASSENGER, BUSINESS;AUTHORIZED FOR HIRE;U. S. MAIL",https://safer.fmcsa.dot.gov/query.asp?searchtype=ANY&query_type=queryCarrierSnapshot&query_param=USDOT&query_string=105566,fmcsa_census_az4n-8mr2
ROY E LAY TRUCKING,ROY E LAY TRUCKING,,ebrown@cal.net,5306621711,WOODLAND,CA,95776,1218 E KENTUCKY AVENUE,105597,43,43,Sacramento,Sacramento,13.7,13.7,69.1,38.69861,-121.69926,A,AUTHORIZED FOR HIRE,https://safer.fmcsa.dot.gov/query.asp?searchtype=ANY&query_type=queryCarrierSnapshot&query_param=USDOT&query_string=105597,fmcsa_census_az4n-8mr2
DHC SUPPLIES INC,DHC SUPPLIES INC,,dgsmithjr@dhcsupplies.com,9163832024,RANCHO CORDOVA,CA,95742,11346 SUNCO DR SUITE 101,117852,2,2,Sacramento,Sacramento,15.8,15.8,78.9,38.57778,-121.20179,A,PRIVATE PROPERTY,https://safer.fmcsa.dot.gov/query.asp?searchtype=ANY&query_type=queryCarrierSnapshot&query_param=USDOT&query_string=117852,fmcsa_census_az4n-8mr2
GOODWILL INDUSTRIES OF SACRAMENTO VALLEY & NORTHERN NEVADA INC,GOODWILL INDUSTRIES OF SACRAMENTO VALLEY & NORTHERN NEVADA INC,,gilbertt@goodwillsacto.org,9163959000,SACRAMENTO,CA,95826,8001 FOLSOM BLVD,117915,20,20,Sacramento,Sacramento,6.8,6.8,70.5,38.54375,-121.37769,A,PRIVATE PROPERTY,https://safer.fmcsa.dot.gov/query.asp?searchtype=ANY&query_type=queryCarrierSnapshot&query_param=USDOT&query_string=117915,fmcsa_census_az4n-8mr2
FOWLER NURSERIES INC,FOWLER NURSERIES INC,,denise@fowlernurseries.com,9166458191,NEWCASTLE,CA,95658,525 FOWLER ROAD,117952,2,2,Sacramento,Sacramento,27.1,27.1,95.4,38.88118,-121.16901,C,PRIVATE PROPERTY,https://safer.fmcsa.dot.gov/query.asp?searchtype=ANY&query_type=queryCarrierSnapshot&query_param=USDOT&query_string=117952,fmcsa_census_az4n-8mr2
EISLEY NURSERY INC,EISLEY NURSERY INC,,contact@eisleywholesale.com,5308850900,AUBURN,CA,95603,380 NEVADA STREET,117989,4,4,Sacramento,Sacramento,32.1,32.1,100.3,38.91587,-121.08028,C,EXEMPT FOR HIRE,https://safer.fmcsa.dot.gov/query.asp?searchtype=ANY&query_type=queryCarrierSnapshot&query_param=USDOT&query_string=117989,fmcsa_census_az4n-8mr2
DEVINE INTERMODAL,DEVINE & SON TRUCKING CO INC,DEVINE INTERMODAL,cdolk@devineintermodal.com,9163714430,WEST SACRAMENTO,CA,95691,3870 CHANNEL DRIVE,118022,37,37,Sacramento,Sacramento,6.2,6.2,67.8,38.62795,-121.59329,A,AUTHORIZED FOR HIRE;OTHER-BROKER,https://safer.fmcsa.dot.gov/query.asp?searchtype=ANY&query_type=queryCarrierSnapshot&query_param=USDOT&query_string=118022,fmcsa_census_az4n-8mr2
CASCADE ROCK INC,CASCADE ROCK INC,,cascaderock@sbcglobal.net,9162753008,SACRAMENTO,CA,95826,8585 KIEFER BLVD,118080,10,10,Sacramento,Sacramento,6.8,6.8,70.5,38.54375,-121.37769,C,PRIVATE PROPERTY,https://safer.fmcsa.dot.gov/query.asp?searchtype=ANY&query_type=queryCarrierSnapshot&query_param=USDOT&query_string=118080,fmcsa_census_az4n-8mr2
FRANK M BOOTH INC,BOOTH FRANK M,FRANK M BOOTH INC,maryh@frankbooth.com,5307493747,MARYSVILLE,CA,95901,222  3RD ST,118200,15,15,Sacramento,Sacramento,44.4,44.4,106.7,39.22394,-121.49405,A,PRIVATE PROPERTY,https://safer.fmcsa.dot.gov/query.asp?searchtype=ANY&query_type=queryCarrierSnapshot&query_param=USDOT&query_string=118200,fmcsa_census_az4n-8mr2
ADAMS TRUCKING INCORPORATED,ADAMS TRUCKING INCORPORATED,,trucking@adamsgrp.com,5306682002,ARBUCKLE,CA,95912,7301 JOHN GALT WAY,118295,39,39,Sacramento,Sacramento,42.9,42.9,84.5,39.0167,-122.06214,A,AUTHORIZED FOR HIRE,https://safer.fmcsa.dot.gov/query.asp?searchtype=ANY&query_type=queryCarrierSnapshot&query_param=USDOT&query_string=118295,fmcsa_census_az4n-8mr2
AMADOR STAGE LINES,AMADOR STAGE LINES INC,AMADOR STAGE LINES,wrabus@hotmail.com,,SACRAMENTO,CA,95814,1331 C STREET,118303,56,0,Sacramento,Sacramento,0.1,0.1,68.2,38.58057,-121.49559,A,"PRIVATE PASSENGER, BUSINESS;PRIVATE PASSENGER, NON-BUSINESS;AUTHORIZED FOR HIRE",https://safer.fmcsa.dot.gov/query.asp?searchtype=ANY&query_type=queryCarrierSnapshot&query_param=USDOT&query_string=118303,fmcsa_census_az4n-8mr2
SWINERTON INCORPORATED,SWINERTON INC,SWINERTON INCORPORATED,josie.wu@swinerton.com,4159841216,CONCORD,CA,94520,2001 CLAYTON ROAD 7TH FLOOR,131651,83,83,Bay,Oakland,18.2,50.2,18.2,37.99529,-122.04063,A,PRIVATE PROPERTY;OTHER-CONSTRUCTION MATERIAL/EQUIPMENT HAULING,https://safer.fmcsa.dot.gov/query.asp?searchtype=ANY&query_type=queryCarrierSnapshot&query_param=USDOT&query_string=131651,fmcsa_census_az4n-8mr2
RLT INC,REDDING LUMBER TRANSPORT INC,RLT INC,safety@rlttrucking.com,5302418193,REDDING,CA,96001,4301 EASTSIDE ROAD,134171,66,66,Sacramento,Sacramento,148.7,148.7,193.5,40.60178,-122.45497,A,AUTHORIZED FOR HIRE,https://safer.fmcsa.dot.gov/query.asp?searchtype=ANY&query_type=queryCarrierSnapshot&query_param=USDOT&query_string=134171,fmcsa_census_az4n-8mr2
KAG WEST,KAG WEST ENERGY LLC,KAG WEST,kag.safety@thekag.com,,WEST SACRAMENTO,CA,95691,4076 SEAPORT BLVD,134406,513,117,Sacramento,Sacramento,6.2,6.2,67.8,38.62795,-121.59329,A,AUTHORIZED FOR HIRE,https://safer.fmcsa.dot.gov/query.asp?searchtype=ANY&query_type=queryCarrierSnapshot&query_param=USDOT&query_string=134406,fmcsa_census_az4n-8mr2
DELTA FARMS TRUCKING INC,DELTA FARMS TRUCKING INC,,deltafarmstrucking@gmail.com,2097611465,LOS BANOS,CA,93635,13816 W BISINGANI RD,134494,5,5,Bay,Oakland,93.4,110.4,93.4,37.06807,-120.84358,C,EXEMPT FOR HIRE,https://safer.fmcsa.dot.gov/query.asp?searchtype=ANY&query_type=queryCarrierSnapshot&query_param=USDOT&query_string=134494,fmcsa_census_az4n-8mr2
ROYAL TRUCKING CO,LEMORE TRANSPORTATION INC,ROYAL TRUCKING CO,hbecker@royaltrucking.com,9256896441,CONCORD,CA,94520,1420 ROYAL INDUSTRIAL WAY,135650,4,4,Bay,Oakland,18.2,50.2,18.2,37.99529,-122.04063,A,AUTHORIZED FOR HIRE,https://safer.fmcsa.dot.gov/query.asp?searchtype=ANY&query_type=queryCarrierSnapshot&query_param=USDOT&query_string=135650,fmcsa_census_az4n-8mr2
STORER COACHWAYS STORER SAN FRANCISCO,STORER TRANSPORTATION SERVICE,STORER COACHWAYS STORER SAN FRANCISCO,donald@storerbus.com,2095218250,MODESTO,CA,95358,3519 MCDONALD AVE,138172,52,0,Stockton,Oakland,64.9,70.2,64.9,37.61261,-121.10857,A,"PRIVATE PASSENGER, BUSINESS;AUTHORIZED FOR HIRE",https://safer.fmcsa.dot.gov/query.asp?searchtype=ANY&query_type=queryCarrierSnapshot&query_param=USDOT&query_string=138172,fmcsa_census_az4n-8mr2
TIGHE DRAYAGE COMPANY INC,TIGHE DRAYAGE COMPANY INC,,tighedrayage@gmail.com,5104523508,OAKLAND,CA,94607,2230 WILLOW ST,140522,2,2,Bay,Oakland,1.7,69.2,1.7,37.80721,-122.3015,C,AUTHORIZED FOR HIRE,https://safer.fmcsa.dot.gov/query.asp?searchtype=ANY&query_type=queryCarrierSnapshot&query_param=USDOT&query_string=140522,fmcsa_census_az4n-8mr2
FOSTER LUMBER YARD INC,FOSTER LUMBER YARD INC,,rubena@caseywood.com,5303093126,VALLEJO,CA,94590,3280 SONOMA BLVD,141999,4,4,Bay,Oakland,20.7,52.6,20.7,38.10323,-122.2491,C,PRIVATE PROPERTY,https://safer.fmcsa.dot.gov/query.asp?searchtype=ANY&query_type=queryCarrierSnapshot&query_param=USDOT&query_string=141999,fmcsa_census_az4n-8mr2
SLAKEY BROTHERS INC,SLAKEY BROTHERS INC,,ostoraasli@slakey.com,9163306000,ELK GROVE,CA,95758,2215 KAUSEN DRIVE,143259,66,66,Sacramento,Sacramento,11.0,11.0,62.2,38.42781,-121.4447,A,PRIVATE PROPERTY;AUTHORIZED FOR HIRE,https://safer.fmcsa.dot.gov/query.asp?searchtype=ANY&query_type=queryCarrierSnapshot&query_param=USDOT&query_string=143259,fmcsa_census_az4n-8mr2
CAMBLIN STEEL SERVICE INC,CAMBLIN STEEL SERVICE INC,,scott.freeman@camblinsteel.com,9168866011,ROSEVILLE,CA,95678,548 GIBSON DRIVE SUITE 150,145248,11,11,Sacramento,Sacramento,16.8,16.8,85.1,38.76407,-121.28752,C,PRIVATE PROPERTY,https://safer.fmcsa.dot.gov/query.asp?searchtype=ANY&query_type=queryCarrierSnapshot&query_param=USDOT&query_string=145248,fmcsa_census_az4n-8mr2
COBB REFRIGERATED FREIGHT INC,COBB REFRIGERATED FREIGHT INC,,dispatch.cobb@gmail.com,2095760327,MODESTO,CA,95351,420 CALIFORNIA AVE,145920,13,13,Stockton,Oakland,70.8,71.5,70.8,37.6236,-120.99632,A,AUTHORIZED FOR HIRE,https://safer.fmcsa.dot.gov/query.asp?searchtype=ANY&query_type=queryCarrierSnapshot&query_param=USDOT&query_string=145920,fmcsa_census_az4n-8mr2
TRUX TRANSPORT INC,TRUX TRANSPORT INC,,msimms@parksfo.com,4158716137,SOUTH SAN FRANCISCO,CA,94080,237 HARBOR WAY,147288,18,0,Bay,Oakland,13.2,81.5,13.2,37.65549,-122.42208,C,"OTHER-UNKNOWN;PRIVATE PASSENGER, BUSINESS",https://safer.fmcsa.dot.gov/query.asp?searchtype=ANY&query_type=queryCarrierSnapshot&query_param=USDOT&query_string=147288,fmcsa_census_az4n-8mr2
DREISBACH FREIGHT SERVICES,DREISBACH ENTERPRISES INC,DREISBACH FREIGHT SERVICES,russell@dreisbach.com,5105336600,OAKLAND,CA,94601,2530 E 11TH ST,148186,3,3,Bay,Oakland,3.5,68.2,3.5,37.77555,-122.2187,A,OTHER-UNKNOWN;AUTHORIZED FOR HIRE,https://safer.fmcsa.dot.gov/query.asp?searchtype=ANY&query_type=queryCarrierSnapshot&query_param=USDOT&query_string=148186,fmcsa_census_az4n-8mr2
LENGNER & SONS EXPRESS,LENGNER AND SONS PRODUCE EXPRESS,LENGNER & SONS EXPRESS,brad@lengnersons.com,5106251900,OAKLAND,CA,94607,1425 MARITIME STREET,154572,42,23,Bay,Oakland,1.7,69.2,1.7,37.80721,-122.3015,A,AUTHORIZED FOR HIRE,https://safer.fmcsa.dot.gov/query.asp?searchtype=ANY&query_type=queryCarrierSnapshot&query_param=USDOT&query_string=154572,fmcsa_census_az4n-8mr2
ADVANCED TOWING,ATLAS TOWING SERVICES INC,ADVANCED TOWING,mark@atlastow.com,4156734242,SAN FRANCISCO,CA,94124,55 NAPOLEON STREET,154573,42,42,Bay,Oakland,8.0,76.2,8.0,37.7289,-122.38278,A,PRIVATE PROPERTY;AUTHORIZED FOR HIRE,https://safer.fmcsa.dot.gov/query.asp?searchtype=ANY&query_type=queryCarrierSnapshot&query_param=USDOT&query_string=154573,fmcsa_census_az4n-8mr2
CHEROKEE FREIGHT LINES STOCKTON LLC,CHEROKEE FREIGHT LINES STOCKTON LLC,,lscannavino@gocfl.com,2094447323,STOCKTON,CA,95205,3655 CHEROKEE ROAD,154922,238,238,Stockton,Sacramento,44.5,44.5,56.3,37.96458,-121.25984,A,AUTHORIZED FOR HIRE,https://safer.fmcsa.dot.gov/query.asp?searchtype=ANY&query_type=queryCarrierSnapshot&query_param=USDOT&query_string=154922,fmcsa_census_az4n-8mr2
D&H TRANSPORTATION,D & H TRANSPORTATION INC,D&H TRANSPORTATION,sabi@dhtransportation.com,5306745746,YUBA CITY,CA,95991,586 FRANKLIN AVE,155075,19,19,Sacramento,Sacramento,29.0,29.0,90.0,38.99419,-121.59459,A,AUTHORIZED FOR HIRE,https://safer.fmcsa.dot.gov/query.asp?searchtype=ANY&query_type=queryCarrierSnapshot&query_param=USDOT&query_string=155075,fmcsa_census_az4n-8mr2
SUPERIOR FARMS ELLENSBURG LAMB CO SOUTHLAND MEATS,TRANSHUMANCE HOLDING COMPANY INC,SUPERIOR FARMS ELLENSBURG LAMB CO SOUTHLAND MEATS,donnell.wiegand@superiorfarms.com,5307583091,DIXON,CA,95620,6621 MIDWAY ROAD,155584,4,4,Sacramento,Sacramento,18.4,18.4,50.5,38.41262,-121.75622,C,PRIVATE PROPERTY;AUTHORIZED FOR HIRE,https://safer.fmcsa.dot.gov/query.asp?searchtype=ANY&query_type=queryCarrierSnapshot&query_param=USDOT&query_string=155584,fmcsa_census_az4n-8mr2
REED & GRAHAM INC,REED & GRAHAM INC,,ashley@rginc.com,4082871400,SAN JOSE,CA,95126,690 SUNOL STREET,155923,6,6,San Jose,Oakland,38.3,89.7,38.3,37.32679,-121.91675,B,PRIVATE PROPERTY,https://safer.fmcsa.dot.gov/query.asp?searchtype=ANY&query_type=queryCarrierSnapshot&query_param=USDOT&query_string=155923,fmcsa_census_az4n-8mr2
CHEVRON USA INCORPORATED,CHEVRON USA INCORPORATED,,aaron.fraker@chevron.com,7133726022,SAN RAMON,CA,94583,6001 BOLLINGER CANYON #T3056,157539,79,73,Bay,Oakland,16.7,62.7,16.7,37.75512,-121.9727,A,"PRIVATE PROPERTY;PRIVATE PASSENGER, NON-BUSINESS;AUTHORIZED FOR HIRE",https://safer.fmcsa.dot.gov/query.asp?searchtype=ANY&query_type=queryCarrierSnapshot&query_param=USDOT&query_string=157539,fmcsa_census_az4n-8mr2
D'ARRIGO BROS CO OF CA,D'ARRIGO BROS CO OF CA,,neil.benson@darrigo.com,8314554500,SALINAS,CA,93908,21777 HARRIS RD,158686,574,109,Bay,Oakland,87.8,133.5,87.8,36.65174,-121.59944,A,PRIVATE PROPERTY,https://safer.fmcsa.dot.gov/query.asp?searchtype=ANY&query_type=queryCarrierSnapshot&query_param=USDOT&query_string=158686,fmcsa_census_az4n-8mr2
BAY AREA PORT SERVICES INC,BAY AREA PORT SERVICES INC,,ralph@bayareaportservices.com,5107297000,WALNUT CREEK,CA,94598,3521 LIME TREE CT,158696,2,2,Bay,Oakland,16.2,54.5,16.2,37.89994,-121.99924,C,AUTHORIZED FOR HIRE,https://safer.fmcsa.dot.gov/query.asp?searchtype=ANY&query_type=queryCarrierSnapshot&query_param=USDOT&query_string=158696,fmcsa_census_az4n-8mr2
LOPES TRUCKING SERVICE INC,LOPES TRUCKING SERVICE INC,,mike@lopesggj.com,2095378901,MODESTO,CA,95358,2127 S CARPENTER RD,158701,14,14,Stockton,Oakland,64.9,70.2,64.9,37.61261,-121.10857,A,AUTHORIZED FOR HIRE,https://safer.fmcsa.dot.gov/query.asp?searchtype=ANY&query_type=queryCarrierSnapshot&query_param=USDOT&query_string=158701,fmcsa_census_az4n-8mr2
GENEVA REFRIGERATED TRUCK SERVICE,GENEVA REFRIGERATED TRUCK SERVICE,,admin@genevagrowers.com,4156473800,SAN FRANCISCO,CA,94124,2050 GALVEZ AVE,161221,9,9,Bay,Oakland,8.0,76.2,8.0,37.7289,-122.38278,A,AUTHORIZED FOR HIRE,https://safer.fmcsa.dot.gov/query.asp?searchtype=ANY&query_type=queryCarrierSnapshot&query_param=USDOT&query_string=161221,fmcsa_census_az4n-8mr2
ROYAL COACH TOURS,ROYAL COACH TOURS,,greg@royal-coach.com,4082794801,SAN JOSE,CA,95126,630 STOCKTON AVE,164777,109,0,San Jose,Oakland,38.3,89.7,38.3,37.32679,-121.91675,A,"PRIVATE PASSENGER, BUSINESS;AUTHORIZED FOR HIRE",https://safer.fmcsa.dot.gov/query.asp?searchtype=ANY&query_type=queryCarrierSnapshot&query_param=USDOT&query_string=164777,fmcsa_census_az4n-8mr2
RICH DOSS INC,RICH DOSS INC,,doss@dosstrucking.com,7075849500,SANTA ROSA,CA,95401,3809 STONY POINT RD,168261,38,38,Bay,Oakland,52.8,70.8,52.8,38.44914,-122.79375,A,AUTHORIZED FOR HIRE,https://safer.fmcsa.dot.gov/query.asp?searchtype=ANY&query_type=queryCarrierSnapshot&query_param=USDOT&query_string=168261,fmcsa_census_az4n-8mr2
SHASTA READY MIX SOUTHERN OREGON READY MIX,J F SHEA CONSTRUCTION INC,SHASTA READY MIX SOUTHERN OREGON READY MIX,christya@cvprs.com,5302464292,REDDING,CA,96001,17400 CLEAR CREK ROAD,169663,81,78,Sacramento,Sacramento,148.7,148.7,193.5,40.60178,-122.45497,A,PRIVATE PROPERTY,https://safer.fmcsa.dot.gov/query.asp?searchtype=ANY&query_type=queryCarrierSnapshot&query_param=USDOT&query_string=169663,fmcsa_census_az4n-8mr2
MOUNTAIN VALLEY EXPRESS LLC,MOUNTAIN VALLEY EXPRESS LLC,,alfonso.montesinos@mveltl.com,8773256447,MANTECA,CA,95337,1019 BESSEMER AVE,172279,277,277,Stockton,Oakland,56.6,59.6,56.6,37.74304,-121.23838,A,AUTHORIZED FOR HIRE,https://safer.fmcsa.dot.gov/query.asp?searchtype=ANY&query_type=queryCarrierSnapshot&query_param=USDOT&query_string=172279,fmcsa_census_az4n-8mr2
ATTHOWE FINE ART SERVICES,ATTHOWE TRANSPORTATION COOPERATIVE CORP,ATTHOWE FINE ART SERVICES,donnell@atthowe.com,5106546816,OAKLAND,CA,94608,3924 MARKET ST,173963,11,11,Bay,Oakland,2.4,67.2,2.4,37.83684,-122.28914,A,PRIVATE PROPERTY;AUTHORIZED FOR HIRE,https://safer.fmcsa.dot.gov/query.asp?searchtype=ANY&query_type=queryCarrierSnapshot&query_param=USDOT&query_string=173963,fmcsa_census_az4n-8mr2
GAN-TRANS LTD,GAN-TRANS LTD,,chad@gan-trans.com,5103573100,SAN LEANDRO,CA,94577,800 CARDEN STREET,174463,8,8,Bay,Oakland,8.5,70.3,8.5,37.71328,-122.16735,A,AUTHORIZED FOR HIRE;EXEMPT FOR HIRE,https://safer.fmcsa.dot.gov/query.asp?searchtype=ANY&query_type=queryCarrierSnapshot&query_param=USDOT&query_string=174463,fmcsa_census_az4n-8mr2
JOHN R LAWSON ROCK & OIL INC,JOHN R LAWSON ROCK & OIL INC,,kimjrlro@sbcglobal.net,5592762220,FRESNO,CA,93722,5723 N GOLDEN STATE BLVD,176694,98,78,Bay,Oakland,148.9,151.7,148.9,36.79936,-119.87479,A,PRIVATE PROPERTY;AUTHORIZED FOR HIRE,https://safer.fmcsa.dot.gov/query.asp?searchtype=ANY&query_type=queryCarrierSnapshot&query_param=USDOT&query_string=176694,fmcsa_census_az4n-8mr2
NORTHSTAR AT TAHOE,TRIMONT LAND COMPANY,NORTHSTAR AT TAHOE,hvazquez@vailresorts.com,5305623825,TRUCKEE,CA,96161,HWY 267 & NORTHSTAR DRIVE,182665,40,5,Sacramento,Sacramento,85.6,85.6,152.6,39.31309,-120.20778,A,PRIVATE PROPERTY;AUTHORIZED FOR HIRE,https://safer.fmcsa.dot.gov/query.asp?searchtype=ANY&query_type=queryCarrierSnapshot&query_param=USDOT&query_string=182665,fmcsa_census_az4n-8mr2
WHITCHURCH & SON,WHITCHURCH & SON,,mwhitchurch@hotmail.com,5303429342,CHICO,CA,95973,13248 WHITCHURCH LANE,184487,7,7,Sacramento,Sacramento,92.4,92.4,146.1,39.89162,-121.84198,A,AUTHORIZED FOR HIRE,https://safer.fmcsa.dot.gov/query.asp?searchtype=ANY&query_type=queryCarrierSnapshot&query_param=USDOT&query_string=184487,fmcsa_census_az4n-8mr2
ROCHA TRANSPORTATION,ED ROCHA LIVESTOCK TRANSPORTATION INC,ROCHA TRANSPORTATION,robd@rochatrans.com,,MODESTO,CA,95358,319 EAST WHITMORE AVE,188119,57,57,Stockton,Oakland,64.9,70.2,64.9,37.61261,-121.10857,A,AUTHORIZED FOR HIRE;EXEMPT FOR HIRE,https://safer.fmcsa.dot.gov/query.asp?searchtype=ANY&query_type=queryCarrierSnapshot&query_param=USDOT&query_string=188119,fmcsa_census_az4n-8mr2
ANDRADE TRUCKING INC,ANDRADE TRUCKING INC,,accounting@andradetrucking.com,4082790900,SAN JOSE,CA,95133,1150 MABURY ROAD STE 3,193122,3,3,San Jose,Oakland,37.4,86.0,37.4,37.37161,-121.86084,C,AUTHORIZED FOR HIRE,https://safer.fmcsa.dot.gov/query.asp?searchtype=ANY&query_type=queryCarrierSnapshot&query_param=USDOT&query_string=193122,fmcsa_census_az4n-8mr2
DELTA TECH SERVICE INC,DELTA TECH SERVICE INC,,cmorel@deltatechservice.com,7077452080,BENICIA,CA,94510,397 W CHANNEL RD,193392,24,24,Bay,Oakland,21.6,48.2,21.6,38.09807,-122.13594,A,PRIVATE PROPERTY,https://safer.fmcsa.dot.gov/query.asp?searchtype=ANY&query_type=queryCarrierSnapshot&query_param=USDOT&query_string=193392,fmcsa_census_az4n-8mr2
TE CONNECTIVITY,TE CONNECTIVITY,,rdhir@te.com,5102263830,FREMONT,CA,94538,44901 INDUSTRIAL DRIVE,193550,3,3,Bay,Oakland,27.1,78.8,27.1,37.50137,-121.95675,A,PRIVATE PROPERTY;OTHER-INTERCOMPANY TRANSFERS MOVING MATERIALS FROM FREMO,https://safer.fmcsa.dot.gov/query.asp?searchtype=ANY&query_type=queryCarrierSnapshot&query_param=USDOT&query_string=193550,fmcsa_census_az4n-8mr2
WARREN E GOMES EXCAVATING INC,WARREN E GOMES EXCAVATING INC,,warrenjr@gomesexcavating.com,7073742881,RIO VISTA,CA,94571,551 AIRPORT ROAD,193731,4,4,Sacramento,Sacramento,32.7,32.7,37.6,38.14886,-121.7377,C,AUTHORIZED FOR HIRE,https://safer.fmcsa.dot.gov/query.asp?searchtype=ANY&query_type=queryCarrierSnapshot&query_param=USDOT&query_string=193731,fmcsa_census_az4n-8mr2
QUALITY TRANSPORT INC,QUALITY TRANSPORT INC,,mparas@qatp-trh.com,5106574267,FREMONT,CA,94538,44355 OLD WARM SPRINGS BLVD,194997,32,32,Bay,Oakland,27.1,78.8,27.1,37.50137,-121.95675,A,AUTHORIZED FOR HIRE;OTHER-IEP,https://safer.fmcsa.dot.gov/query.asp?searchtype=ANY&query_type=queryCarrierSnapshot&query_param=USDOT&query_string=194997,fmcsa_census_az4n-8mr2
PACIFIC SCIENTIFIC ENERGETIC MATERIALS COMPANY CALIFORNIA LLC,PACIFIC SCIENTIFIC ENERGETIC MATERIALS COMPANY CALIFORNIA LLC,,brobertson@psemc.com,4082343530,HOLLISTER,CA,95023,3601 UNION RD,195693,8,4,Bay,Oakland,80.3,116.3,80.3,36.90205,-121.35078,C,PRIVATE PROPERTY,https://safer.fmcsa.dot.gov/query.asp?searchtype=ANY&query_type=queryCarrierSnapshot&query_param=USDOT&query_string=195693,fmcsa_census_az4n-8mr2
STANISLAUS FARM SUPPLY CO,STANISLAUS FARM SUPPLY CO,,regulatory@farmsupply.com,2095387070,MODESTO,CA,95358,624 E SERVICE ROAD,195813,32,30,Stockton,Oakland,64.9,70.2,64.9,37.61261,-121.10857,A,PRIVATE PROPERTY;AUTHORIZED FOR HIRE,https://safer.fmcsa.dot.gov/query.asp?searchtype=ANY&query_type=queryCarrierSnapshot&query_param=USDOT&query_string=195813,fmcsa_census_az4n-8mr2
RIVER CITY PETROLEUM INC,RIVER CITY PETROLEUM INC,,rbautista@rcpfuel.com,9163714960,SACRAMENTO,CA,95834,3775 N FREEWAY BLVD STE 101,197775,7,3,Sacramento,Sacramento,4.0,4.0,70.5,38.63565,-121.51842,A,PRIVATE PROPERTY,https://safer.fmcsa.dot.gov/query.asp?searchtype=ANY&query_type=queryCarrierSnapshot&query_param=USDOT&query_string=197775,fmcsa_census_az4n-8mr2
ALL COAST FOREST PRODUCTS,ALL COAST FOREST PRODUCTS INC,ALL COAST FOREST PRODUCTS,sbernardi@all-coast.com,7079750589,CLOVERDALE,CA,95425,250 ASTI ROAD,198590,5,5,Bay,Oakland,82.5,86.3,82.5,38.82306,-123.06389,A,PRIVATE PROPERTY;AUTHORIZED FOR HIRE,https://safer.fmcsa.dot.gov/query.asp?searchtype=ANY&query_type=queryCarrierSnapshot&query_param=USDOT&query_string=198590,fmcsa_census_az4n-8mr2
J W MYERS INC,J W MYERS INC,,myerskmc@sbcglobal.net,5596733101,MADERA,CA,93638,546 E OLIVE,201797,21,12,Sacramento,Sacramento,132.9,132.9,133.6,37.04343,-120.03369,B,PRIVATE PROPERTY,https://safer.fmcsa.dot.gov/query.asp?searchtype=ANY&query_type=queryCarrierSnapshot&query_param=USDOT&query_string=201797,fmcsa_census_az4n-8mr2
SIERRA PACIFIC TOURS,SIERRA LINES INC,SIERRA PACIFIC TOURS,info@sierrapacifictours.com,9258258500,PACHECO,CA,94553,114 S BUCHANAN CIRCLE,204113,5,0,Bay,Oakland,15.0,53.5,15.0,37.99389,-122.13644,A,"PRIVATE PASSENGER, BUSINESS;AUTHORIZED FOR HIRE",https://safer.fmcsa.dot.gov/query.asp?searchtype=ANY&query_type=queryCarrierSnapshot&query_param=USDOT&query_string=204113,fmcsa_census_az4n-8mr2
WESTERN COLLOID N C INC,WESTERN COLLOID N C INC,,wcnc@westerncolloid.com,8009564899,OAKLAND,CA,94621,700 71ST AVE,214184,2,2,Bay,Oakland,4.9,69.7,4.9,37.74827,-122.21683,A,PRIVATE PROPERTY,https://safer.fmcsa.dot.gov/query.asp?searchtype=ANY&query_type=queryCarrierSnapshot&query_param=USDOT&query_string=214184,fmcsa_census_az4n-8mr2
ASTA CONSTRUCTION CO INC,ASTA CONSTRUCTION CO INC,,cynthia@astaconstruction.com,7073746472,RIO VISTA,CA,94571,1090 ST FRANCIS WAY,216103,10,10,Sacramento,Sacramento,32.7,32.7,37.6,38.14886,-121.7377,B,PRIVATE PROPERTY,https://safer.fmcsa.dot.gov/query.asp?searchtype=ANY&query_type=queryCarrierSnapshot&query_param=USDOT&query_string=216103,fmcsa_census_az4n-8mr2
BENS TRUCK & EQUIPMENT INC,BENS TRUCK & EQUIPMENT INC,,benstruck@sbcglobal.net,5305275040,RED BLUFF,CA,96080,2060 MONTGOMERY ROAD,216137,8,8,Sacramento,Sacramento,120.2,120.2,164.4,40.18189,-122.3771,A,PRIVATE PROPERTY;STATE GOVERNMENT;AUTHORIZED FOR HIRE;FEDERAL GOVERNMENT,https://safer.fmcsa.dot.gov/query.asp?searchtype=ANY&query_type=queryCarrierSnapshot&query_param=USDOT&query_string=216137,fmcsa_census_az4n-8mr2
T & T TRUCKING INC,T & T TRUCKING INC,,sgalli@tttrucking.com,,LODI,CA,95240,11396 N US HIGHWAY 99,216337,102,102,Stockton,Sacramento,37.4,37.4,65.0,38.11439,-121.14466,A,AUTHORIZED FOR HIRE,https://safer.fmcsa.dot.gov/query.asp?searchtype=ANY&query_type=queryCarrierSnapshot&query_param=USDOT&query_string=216337,fmcsa_census_az4n-8mr2
GRASS VALLEY TRANSFER INC,GRASS VALLEY TRANSFER INC,,clancydog2009@gmail.com,5302734679,GRASS VALLEY,CA,95945,11429 EAST BENNETT ROAD,216879,3,3,Sacramento,Sacramento,50.9,50.9,119.1,39.19639,-120.97229,A,AUTHORIZED FOR HIRE,https://safer.fmcsa.dot.gov/query.asp?searchtype=ANY&query_type=queryCarrierSnapshot&query_param=USDOT&query_string=216879,fmcsa_census_az4n-8mr2
GRANITE,GRANITE CONSTRUCTION COMPANY,GRANITE,wendy.warner@gcinc.com,8317241011,WATSONVILLE,CA,95076,585 W BEACH ST,216892,939,873,Bay,Oakland,65.7,113.9,65.7,36.94626,-121.75648,A,PRIVATE PROPERTY;AUTHORIZED FOR HIRE,https://safer.fmcsa.dot.gov/query.asp?searchtype=ANY&query_type=queryCarrierSnapshot&query_param=USDOT&query_string=216892,fmcsa_census_az4n-8mr2
SPRAY CHEM CHEMICAL CO INC,SPRAY CHEM CHEMICAL CO INC,,cliff@spraychem.com,5308953658,DURHAM,CA,95938,705 KEENAN COURT,217522,5,5,Sacramento,Sacramento,72.5,72.5,127.0,39.60471,-121.79529,B,PRIVATE PROPERTY,https://safer.fmcsa.dot.gov/query.asp?searchtype=ANY&query_type=queryCarrierSnapshot&query_param=USDOT&query_string=217522,fmcsa_census_az4n-8mr2
TURLOCK SCAVENGER COMPANY INC,TURLOCK SCAVENGER COMPANY INC,,dmarchant@turlockscavenger.com,2096686049,TURLOCK,CA,95380,1200 S WALNUT RD,217597,42,42,Stockton,Oakland,79.7,83.6,79.7,37.4744,-120.87592,C,PRIVATE PROPERTY;AUTHORIZED FOR HIRE,https://safer.fmcsa.dot.gov/query.asp?searchtype=ANY&query_type=queryCarrierSnapshot&query_param=USDOT&query_string=217597,fmcsa_census_az4n-8mr2
RAM TRUCKING INC,RAM TRUCKING INC,,dora@ramtruckinginc.com,8316787307,SOLEDAD,CA,93960,32645 MCCOY ROAD,220272,70,70,Bay,Oakland,110.3,151.7,110.3,36.38962,-121.34315,A,AUTHORIZED FOR HIRE,https://safer.fmcsa.dot.gov/query.asp?searchtype=ANY&query_type=queryCarrierSnapshot&query_param=USDOT&query_string=220272,fmcsa_census_az4n-8mr2
METROPOLITAN VAN & STORAGE,METROPOLITAN VAN AND STORAGE INC,METROPOLITAN VAN & STORAGE,dennis@metrovan.com,7077451150,FAIRFIELD,CA,94533,2250 SOUTH WATNEY WAY,222569,12,12,Bay,Sacramento,34.6,34.6,35.9,38.28075,-122.00638,A,AUTHORIZED FOR HIRE,https://safer.fmcsa.dot.gov/query.asp?searchtype=ANY&query_type=queryCarrierSnapshot&query_param=USDOT&query_string=222569,fmcsa_census_az4n-8mr2
RON LAWRENCE TRANSPORT INC,RON LAWRENCE TRANSPORT INC,,don@ronlawrenceandson.com,2095210395,MODESTO,CA,95354,532 BEARD AVE,224415,21,21,Stockton,Sacramento,71.2,71.2,72.3,37.63903,-120.96477,A,AUTHORIZED FOR HIRE,https://safer.fmcsa.dot.gov/query.asp?searchtype=ANY&query_type=queryCarrierSnapshot&query_param=USDOT&query_string=224415,fmcsa_census_az4n-8mr2
HALLMARK FISHERIES,CALIFORNIA SHELLFISH CO INC,HALLMARK FISHERIES,cfo_calshellfish@comcast.net,4159237400,SAN FRANCISCO,CA,94133,505 BEACH ST STE 200,225829,4,4,Bay,Oakland,7.6,73.2,7.6,37.80453,-122.41085,A,PRIVATE PROPERTY,https://safer.fmcsa.dot.gov/query.asp?searchtype=ANY&query_type=queryCarrierSnapshot&query_param=USDOT&query_string=225829,fmcsa_census_az4n-8mr2
LAWRENCE M ALEGRE TRUCKING INC,LAWRENCE M ALEGRE TRUCKING INC,,lmatrucking@sbcglobal.net,,FRENCH CAMP,CA,95231,747 E ROTH ROAD,228086,13,12,Sacramento,Sacramento,50.1,50.1,53.7,37.87379,-121.29015,A,AUTHORIZED FOR HIRE,https://safer.fmcsa.dot.gov/query.asp?searchtype=ANY&query_type=queryCarrierSnapshot&query_param=USDOT&query_string=228086,fmcsa_census_az4n-8mr2
JARRETT FOUNDATIONS LLC,JARRETT FOUNDATIONS LLC,,julie@jarrettfoundations.com,9163718760,MCCLELLAN,CA,95652,4518 WINTERS STREET,228194,11,11,Sacramento,Sacramento,7.5,7.5,75.8,38.66298,-121.40111,A,PRIVATE PROPERTY,https://safer.fmcsa.dot.gov/query.asp?searchtype=ANY&query_type=queryCarrierSnapshot&query_param=USDOT&query_string=228194,fmcsa_census_az4n-8mr2
WILLIAMS TANK LINES,WILLIAMS TANK LINES LLC,WILLIAMS TANK LINES,claims@williamstankline.com,2099445613,STOCKTON,CA,95206,1477 TILLIE LEWIS DR,229047,336,161,Stockton,Sacramento,46.0,46.0,47.2,37.91885,-121.41743,A,AUTHORIZED FOR HIRE,https://safer.fmcsa.dot.gov/query.asp?searchtype=ANY&query_type=queryCarrierSnapshot&query_param=USDOT&query_string=229047,fmcsa_census_az4n-8mr2
PANELLA TRUCKING LLC,PANELLA TRUCKING LLC,,lkschwartz@panellatrucking.com,,STOCKTON,CA,95215,5000 E FREMONT STREET,234182,232,232,Stockton,Sacramento,47.4,47.4,61.6,37.94942,-121.15728,A,PRIVATE PROPERTY;AUTHORIZED FOR HIRE;EXEMPT FOR HIRE,https://safer.fmcsa.dot.gov/query.asp?searchtype=ANY&query_type=queryCarrierSnapshot&query_param=USDOT&query_string=234182,fmcsa_census_az4n-8mr2
TRANS BAY TRUCKING INC,TRANS BAY TRUCKING INC,,janice@transbaytrucking.com,5102328700,VACAVILLE,CA,95688,4655 ESQUIVEL ROAD,234589,2,2,Bay,Sacramento,31.0,31.0,43.9,38.40857,-122.02277,A,AUTHORIZED FOR HIRE,https://safer.fmcsa.dot.gov/query.asp?searchtype=ANY&query_type=queryCarrierSnapshot&query_param=USDOT&query_string=234589,fmcsa_census_az4n-8mr2
EXPRESS FREIGHT SYSTEM,JOHANSEN FREIGHT INTERNATIONAL,EXPRESS FREIGHT SYSTEM,maryhartfield@express-freight.com,5103570850,SAN LEANDRO,CA,94577,2027 WILLIAMS STREET,239534,8,8,Bay,Oakland,8.5,70.3,8.5,37.71328,-122.16735,C,AUTHORIZED FOR HIRE,https://safer.fmcsa.dot.gov/query.asp?searchtype=ANY&query_type=queryCarrierSnapshot&query_param=USDOT&query_string=239534,fmcsa_census_az4n-8mr2
QUINTERO TRUCKING CORP,QUINTERO TRUCKING CORP,,bigquintero@sbcglobal.net,8007742770,OAKLAND,CA,94607,2270 POPLAR ST,245005,4,4,Bay,Oakland,1.7,69.2,1.7,37.80721,-122.3015,A,PRIVATE PROPERTY;AUTHORIZED FOR HIRE,https://safer.fmcsa.dot.gov/query.asp?searchtype=ANY&query_type=queryCarrierSnapshot&query_param=USDOT&query_string=245005,fmcsa_census_az4n-8mr2
D HILL TRUCKING INC,D HILL TRUCKING INC,,dhilltrucking@prodigy.net,2098324465,TRACY,CA,95377,28850 SOUTH TRACY BLVD,245644,4,4,Stockton,Oakland,42.2,62.7,42.2,37.67394,-121.51723,A,PRIVATE PROPERTY;AUTHORIZED FOR HIRE,https://safer.fmcsa.dot.gov/query.asp?searchtype=ANY&query_type=queryCarrierSnapshot&query_param=USDOT&query_string=245644,fmcsa_census_az4n-8mr2
KOOKEN TRUCKING INC,KOOKEN TRUCKING INC,,kookentruckinginc@hotmail.com,2099488370,STOCKTON,CA,95215,4026 MUNFORD AVE,249050,3,3,Stockton,Sacramento,47.4,47.4,61.6,37.94942,-121.15728,A,AUTHORIZED FOR HIRE,https://safer.fmcsa.dot.gov/query.asp?searchtype=ANY&query_type=queryCarrierSnapshot&query_param=USDOT&query_string=249050,fmcsa_census_az4n-8mr2
SAN JOAQUIN VALLEY EXPRESS,G3 ENTERPRISES INC,SAN JOAQUIN VALLEY EXPRESS,g3logisticscompliance@g3enterprises.com,2092757047,MODESTO,CA,95358,502 E WHITMORE AVE,252836,2,2,Stockton,Oakland,64.9,70.2,64.9,37.61261,-121.10857,A,AUTHORIZED FOR HIRE,https://safer.fmcsa.dot.gov/query.asp?searchtype=ANY&query_type=queryCarrierSnapshot&query_param=USDOT&query_string=252836,fmcsa_census_az4n-8mr2
FOSTER MOVING SYSTEMS INC,FOSTER MOVING SYSTEMS INC,,operations@fostervanlines.com,5102349133,RICHMOND,CA,94804,167 S 2ND ST,252932,3,3,Bay,Oakland,8.6,65.0,8.6,37.91656,-122.34123,A,AUTHORIZED FOR HIRE,https://safer.fmcsa.dot.gov/query.asp?searchtype=ANY&query_type=queryCarrierSnapshot&query_param=USDOT&query_string=252932,fmcsa_census_az4n-8mr2
AMERICAN STAGE TOURS,AMERICAN STAGE TOURS LLC,AMERICAN STAGE TOURS,charles@americanstagetours.com,9256877705,CONCORD,CA,94518,1488 SOCCER COURT,253482,7,0,Bay,Oakland,16.9,52.2,16.9,37.95036,-122.02204,A,AUTHORIZED FOR HIRE,https://safer.fmcsa.dot.gov/query.asp?searchtype=ANY&query_type=queryCarrierSnapshot&query_param=USDOT&query_string=253482,fmcsa_census_az4n-8mr2
VERITABLE VEGETABLE INC,VERITABLE VEGETABLE INC,,ccastro@veritablevegetable.com,4156413500,SAN FRANCISCO,CA,94124,1100 CESAR CHAVEZ STREET,258174,26,26,Bay,Oakland,8.0,76.2,8.0,37.7289,-122.38278,A,PRIVATE PROPERTY;AUTHORIZED FOR HIRE,https://safer.fmcsa.dot.gov/query.asp?searchtype=ANY&query_type=queryCarrierSnapshot&query_param=USDOT&query_string=258174,fmcsa_census_az4n-8mr2
DON D DAVIS TOWING KENNIE C KNOWLES TRUCKING,MICHAEL T KNOWLES KENNIE C KNOWLES AND WILMA E KNOWLES,DON D DAVIS TOWING KENNIE C KNOWLES TRUCKING,knowles2b5@yahoo.com,5302431366,REDDING,CA,96001,3411 S MARKET ST,260536,5,5,Sacramento,Sacramento,148.7,148.7,193.5,40.60178,-122.45497,C,AUTHORIZED FOR HIRE,https://safer.fmcsa.dot.gov/query.asp?searchtype=ANY&query_type=queryCarrierSnapshot&query_param=USDOT&query_string=260536,fmcsa_census_az4n-8mr2
LASSEN TRANSFER & STORAGE,ARLAN R MALLERY,LASSEN TRANSFER & STORAGE,lassentransfer@citlink.net,5302573780,SUSANVILLE,CA,96130,703 750 RICHMOND RD,260768,3,3,Sacramento,Sacramento,142.9,142.9,208.2,40.55176,-120.67567,A,AUTHORIZED FOR HIRE,https://safer.fmcsa.dot.gov/query.asp?searchtype=ANY&query_type=queryCarrierSnapshot&query_param=USDOT&query_string=260768,fmcsa_census_az4n-8mr2
MERCED TRANSPORTATION COMPANY,MERCED TRANSPORTATION COMPANY,,criggs@viatrailways.com,2093842575,MERCED,CA,95341,300 GROGAN AVENUE,267225,22,0,Stockton,Oakland,104.8,107.9,104.8,37.23105,-120.50107,C,AUTHORIZED FOR HIRE,https://safer.fmcsa.dot.gov/query.asp?searchtype=ANY&query_type=queryCarrierSnapshot&query_param=USDOT&query_string=267225,fmcsa_census_az4n-8mr2
AGGRESSIVE TRANSPORT LTD (USA),AGGRESSIVE TRANSPORT LTD (USA),,colleen@aggressivetransportusa.com,8775131700,RED BLUFF,CA,96080,13535 STATE HIGHWAY 36 E,269111,45,45,Sacramento,Sacramento,120.2,120.2,164.4,40.18189,-122.3771,A,AUTHORIZED FOR HIRE,https://safer.fmcsa.dot.gov/query.asp?searchtype=ANY&query_type=queryCarrierSnapshot&query_param=USDOT&query_string=269111,fmcsa_census_az4n-8mr2
CHEMICAL TRANSFER --OR-- CHEMICAL TRANSFER COMPANY INC,CHEMICAL TRANSFER COMPANY,CHEMICAL TRANSFER --OR-- CHEMICAL TRANSFER COMPANY INC,cindy@caltank.com,2094663554,STOCKTON,CA,95206,3105 SOUTH EL DORADO STREET,269372,231,231,Stockton,Sacramento,46.0,46.0,47.2,37.91885,-121.41743,A,AUTHORIZED FOR HIRE,https://safer.fmcsa.dot.gov/query.asp?searchtype=ANY&query_type=queryCarrierSnapshot&query_param=USDOT&query_string=269372,fmcsa_census_az4n-8mr2
NORDIC INDUSTRIES INC,NORDIC INDUSTRIES INC,,mike@nordicind.com,5307427124,OLIVEHURST,CA,95961,1437 FURNEAUX ROAD,269756,34,34,Sacramento,Sacramento,31.9,31.9,93.7,39.0403,-121.56048,A,AUTHORIZED FOR HIRE,https://safer.fmcsa.dot.gov/query.asp?searchtype=ANY&query_type=queryCarrierSnapshot&query_param=USDOT&query_string=269756,fmcsa_census_az4n-8mr2
HATTON CRANE & RIGGING INC,HATTON CRANE & RIGGING INC,,fariba@hattons.com,5106700737,HAYWARD,CA,94545,3643 DEPOT ROAD,270060,63,63,Bay,Oakland,15.8,75.7,15.8,37.6059,-122.12687,C,AUTHORIZED FOR HIRE,https://safer.fmcsa.dot.gov/query.asp?searchtype=ANY&query_type=queryCarrierSnapshot&query_param=USDOT&query_string=270060,fmcsa_census_az4n-8mr2
CAL CARGO,PACIFIC CARGO INC,CAL CARGO,kshimamoto@calcargo.com,5107750800,OAKLAND,CA,94621,7230 EDGEWATER DR,270598,8,8,Bay,Oakland,4.9,69.7,4.9,37.74827,-122.21683,A,AUTHORIZED FOR HIRE,https://safer.fmcsa.dot.gov/query.asp?searchtype=ANY&query_type=queryCarrierSnapshot&query_param=USDOT&query_string=270598,fmcsa_census_az4n-8mr2
DISCOVERY,DORR DISTRIBUTION SYSTEMS INC,DISCOVERY,rich@discoverycharters.com,8316332877,CASTROVILLE,CA,95012,11020 COMMERCIAL PARKWAY,271814,16,0,Bay,Oakland,75.9,125.0,75.9,36.78448,-121.75905,A,"PRIVATE PASSENGER, BUSINESS;PRIVATE PASSENGER, NON-BUSINESS;AUTHORIZED FOR HIRE",https://safer.fmcsa.dot.gov/query.asp?searchtype=ANY&query_type=queryCarrierSnapshot&query_param=USDOT&query_string=271814,fmcsa_census_az4n-8mr2
AMYCEL LLC,AMYCEL LLC,,safety@prtransport.com,8316237400,WATSONVILLE,CA,95076,260 WESTGATE DR,272737,5,5,Bay,Oakland,65.7,113.9,65.7,36.94626,-121.75648,A,PRIVATE PROPERTY,https://safer.fmcsa.dot.gov/query.asp?searchtype=ANY&query_type=queryCarrierSnapshot&query_param=USDOT&query_string=272737,fmcsa_census_az4n-8mr2
PACIFIC MONARCH LIMITED,PACIFIC MONARCH LIMITED,,info@pacificmonarchltd.com,8318838900,MARINA,CA,93933,3346 PAUL DAVIS DR,276423,25,0,Bay,Oakland,81.7,131.9,81.7,36.68684,-121.78689,A,"PRIVATE PASSENGER, BUSINESS;PRIVATE PASSENGER, NON-BUSINESS;AUTHORIZED FOR HIRE",https://safer.fmcsa.dot.gov/query.asp?searchtype=ANY&query_type=queryCarrierSnapshot&query_param=USDOT&query_string=276423,fmcsa_census_az4n-8mr2
DON ROBINSON SAND AND GRAVEL INC,DON ROBINSON SAND AND GRAVEL INC,,safety@robinsonsg.com,5308855623,AUBURN,CA,95603,2145 GRASS VALLEY HWY,279647,17,17,Sacramento,Sacramento,32.1,32.1,100.3,38.91587,-121.08028,C,AUTHORIZED FOR HIRE,https://safer.fmcsa.dot.gov/query.asp?searchtype=ANY&query_type=queryCarrierSnapshot&query_param=USDOT&query_string=279647,fmcsa_census_az4n-8mr2
A C TRUCKING,A C TRUCKING,,anunes@acttrucking.com,2098233224,MANTECA,CA,95336,405 S VASCONCELLOS AVE,281881,27,27,Stockton,Sacramento,54.3,54.3,58.4,37.83027,-121.20102,A,AUTHORIZED FOR HIRE,https://safer.fmcsa.dot.gov/query.asp?searchtype=ANY&query_type=queryCarrierSnapshot&query_param=USDOT&query_string=281881,fmcsa_census_az4n-8mr2
ROADSHOW,ROADSHOW SERVICES INC,ROADSHOW,melissa@roadshowservices.com,4158223000,MILLBRAE,CA,94030,1124 MILLBRAE AVENUE,287123,32,32,Bay,Oakland,15.9,83.9,15.9,37.59897,-122.40199,A,AUTHORIZED FOR HIRE,https://safer.fmcsa.dot.gov/query.asp?searchtype=ANY&query_type=queryCarrierSnapshot&query_param=USDOT&query_string=287123,fmcsa_census_az4n-8mr2
DELANCEY STREET MOVING & TRANSPORTATION,DELANCEY STREET FOUNDATION,DELANCEY STREET MOVING & TRANSPORTATION,mboris@delanceystreet.org,4159579800,SAN FRANCISCO,CA,94124,5700 3RD  STREET,289919,13,13,Bay,Oakland,8.0,76.2,8.0,37.7289,-122.38278,A,PRIVATE PROPERTY;AUTHORIZED FOR HIRE,https://safer.fmcsa.dot.gov/query.asp?searchtype=ANY&query_type=queryCarrierSnapshot&query_param=USDOT&query_string=289919,fmcsa_census_az4n-8mr2
REEVE TRUCKING COMPANY,REEVE TRUCKING COMPANY INC,REEVE TRUCKING COMPANY,spike@reevetrucking.com,,STOCKTON,CA,95215,5050 CARPENTER ROAD,290187,162,162,Stockton,Sacramento,47.4,47.4,61.6,37.94942,-121.15728,A,PRIVATE PROPERTY;AUTHORIZED FOR HIRE,https://safer.fmcsa.dot.gov/query.asp?searchtype=ANY&query_type=queryCarrierSnapshot&query_param=USDOT&query_string=290187,fmcsa_census_az4n-8mr2
J VALLES TRUCKING INC,J VALLES TRUCKING INC,,truckingjvt@aol.com,2098359190,TRACY,CA,95377,6715 S TRACY BLVD,291698,2,2,Stockton,Oakland,42.2,62.7,42.2,37.67394,-121.51723,A,AUTHORIZED FOR HIRE,https://safer.fmcsa.dot.gov/query.asp?searchtype=ANY&query_type=queryCarrierSnapshot&query_param=USDOT&query_string=291698,fmcsa_census_az4n-8mr2
J S G TRUCKING CO INC,J S G TRUCKING CO INC,,rcrusenberry@jsgtrucking.com,2093688815,ACAMPO,CA,95220,19400 N HIGHWAY 99,292989,11,11,Sacramento,Sacramento,29.9,29.9,62.7,38.20023,-121.23503,A,AUTHORIZED FOR HIRE,https://safer.fmcsa.dot.gov/query.asp?searchtype=ANY&query_type=queryCarrierSnapshot&query_param=USDOT&query_string=292989,fmcsa_census_az4n-8mr2
SUMMERTIME FARMS INC,SUMMERTIME FARMS INC,,nancy@sfirecycle.com,5102378012,RICHMOND,CA,94801,11 PARR BLVD,295640,7,7,Bay,Oakland,11.9,64.9,11.9,37.95284,-122.38197,C,PRIVATE PROPERTY;AUTHORIZED FOR HIRE,https://safer.fmcsa.dot.gov/query.asp?searchtype=ANY&query_type=queryCarrierSnapshot&query_param=USDOT&query_string=295640,fmcsa_census_az4n-8mr2
FRANK C ALEGRE TRUCKING INC,FRANK C ALEGRE TRUCKING INC,,derrick@alegretrucking.com,2093342112,LODI,CA,95242,5100 W US HIGHWAY 12,296231,238,238,Stockton,Sacramento,31.3,31.3,53.5,38.13707,-121.38455,A,PRIVATE PROPERTY;AUTHORIZED FOR HIRE,https://safer.fmcsa.dot.gov/query.asp?searchtype=ANY&query_type=queryCarrierSnapshot&query_param=USDOT&query_string=296231,fmcsa_census_az4n-8mr2
HEITZ TRUCKING INC,HEITZ TRUCKING INC,,zach@heitztrucking.com,5307517750,YUBA CITY,CA,95993,3450 INDUSTRIAL DR,297656,3,3,Sacramento,Sacramento,36.0,36.0,93.9,39.0825,-121.68011,C,AUTHORIZED FOR HIRE,https://safer.fmcsa.dot.gov/query.asp?searchtype=ANY&query_type=queryCarrierSnapshot&query_param=USDOT&query_string=297656,fmcsa_census_az4n-8mr2
CONSTRUCTION SPECIALTY,CONSPEC INCORPORATED,CONSTRUCTION SPECIALTY,conspec.lh@gmail.com,7606476346,LEE VINING,CA,93541,155 HANSEN RD,300280,11,11,Sacramento,Sacramento,135.4,135.4,172.6,37.98807,-119.11439,A,AUTHORIZED FOR HIRE,https://safer.fmcsa.dot.gov/query.asp?searchtype=ANY&query_type=queryCarrierSnapshot&query_param=USDOT&query_string=300280,fmcsa_census_az4n-8mr2
SIERRA TAHOE READY MIX INC,SIERRA TAHOE READY MIX INC,,sierratahoereadymix@aol.com,5305411877,SOUTH LAKE TAHOE,CA,96150,1526 EMERALD BAY RD,305960,12,12,Sacramento,Sacramento,82.5,82.5,143.0,38.86982,-120.00859,A,PRIVATE PROPERTY;AUTHORIZED FOR HIRE,https://safer.fmcsa.dot.gov/query.asp?searchtype=ANY&query_type=queryCarrierSnapshot&query_param=USDOT&query_string=305960,fmcsa_census_az4n-8mr2
MANUEL BRASIL HAY & CATTLE,MANUEL F BRASIL,MANUEL BRASIL HAY & CATTLE,manuelbrasiltrucking@gmail.com,,MODESTO,CA,95358,8873 HUNTINGTON RD,307049,3,3,Stockton,Oakland,64.9,70.2,64.9,37.61261,-121.10857,A,PRIVATE PROPERTY;AUTHORIZED FOR HIRE;EXEMPT FOR HIRE,https://safer.fmcsa.dot.gov/query.asp?searchtype=ANY&query_type=queryCarrierSnapshot&query_param=USDOT&query_string=307049,fmcsa_census_az4n-8mr2
GOLDEN GATE FREIGHT SYSTEMS INC,GOLDEN GATE FREIGHT SYSTEMS INC,,jcardenas@ggaf.com,5107852720,HAYWARD,CA,94545,1809 SABRE ST,310392,2,2,Bay,Oakland,15.8,75.7,15.8,37.6059,-122.12687,A,AUTHORIZED FOR HIRE,https://safer.fmcsa.dot.gov/query.asp?searchtype=ANY&query_type=queryCarrierSnapshot&query_param=USDOT&query_string=310392,fmcsa_census_az4n-8mr2
BLUE STAR GAS,BLUE STAR GAS FLEET SERVICES,BLUE STAR GAS,tnagata@bluestargas.com,7075733130,SANTA ROSA,CA,95407,880 N WRIGHT ROAD,316141,145,87,Bay,Oakland,48.2,68.9,48.2,38.3933,-122.74505,A,PRIVATE PROPERTY,https://safer.fmcsa.dot.gov/query.asp?searchtype=ANY&query_type=queryCarrierSnapshot&query_param=USDOT&query_string=316141,fmcsa_census_az4n-8mr2
SOUTHWEST TRUCK SERVICE,SOUTHWEST TRUCK SERVICE,,order@swtrucking.com,8317241041,WATSONVILLE,CA,95076,350 PINE STREET,319378,2,2,Bay,Oakland,65.7,113.9,65.7,36.94626,-121.75648,A,AUTHORIZED FOR HIRE;EXEMPT FOR HIRE,https://safer.fmcsa.dot.gov/query.asp?searchtype=ANY&query_type=queryCarrierSnapshot&query_param=USDOT&query_string=319378,fmcsa_census_az4n-8mr2
WOOTENS GOLDEN QUEENS INC,WOOTENS GOLDEN QUEENS INC,,wootengoldqueens@aol.com,5304745089,SHINGLETOWN,CA,96088,8805 PONDEROSA WAY,322788,3,3,Sacramento,Sacramento,134.8,134.8,188.2,40.51087,-121.87611,C,PRIVATE PROPERTY,https://safer.fmcsa.dot.gov/query.asp?searchtype=ANY&query_type=queryCarrierSnapshot&query_param=USDOT&query_string=322788,fmcsa_census_az4n-8mr2
JOHN LAMBIRTH TRUCKING,JOHN LAMBIRTH TRUCKING INC,JOHN LAMBIRTH TRUCKING,leslie@lambirthtrucking.com,5305765707,COLUSA,CA,95932,3110 WILSON AVE,333383,33,33,Sacramento,Sacramento,54.0,54.0,102.3,39.26647,-121.9786,A,AUTHORIZED FOR HIRE,https://safer.fmcsa.dot.gov/query.asp?searchtype=ANY&query_type=queryCarrierSnapshot&query_param=USDOT&query_string=333383,fmcsa_census_az4n-8mr2
RALPH PANELLA LEASING LP,RALPH PANELLA LEASING LP,,lschwartz@panellatrucking.com,2099435000,STOCKTON,CA,95215,5000 E FREMONT STREET,334013,232,232,Stockton,Sacramento,47.4,47.4,61.6,37.94942,-121.15728,A,PRIVATE PROPERTY;AUTHORIZED FOR HIRE;OTHER-LEASING COMPANY,https://safer.fmcsa.dot.gov/query.asp?searchtype=ANY&query_type=queryCarrierSnapshot&query_param=USDOT&query_string=334013,fmcsa_census_az4n-8mr2
BILL AMAREL TRUCKING INC,BILL AMAREL TRUCKING INC,,ar@billamareltrucking.com,5306731108,YUBA CITY,CA,95993,2260 OSWALD RD,337467,6,6,Sacramento,Sacramento,36.0,36.0,93.9,39.0825,-121.68011,A,AUTHORIZED FOR HIRE,https://safer.fmcsa.dot.gov/query.asp?searchtype=ANY&query_type=queryCarrierSnapshot&query_param=USDOT&query_string=337467,fmcsa_census_az4n-8mr2
INTER-STATE OIL COMPANY,INTER-STATE OIL COMPANY,,kfereira@interstateoil.com,9164576572,SACRAMENTO,CA,95826,8221 ALPINE STREET,341964,82,35,Sacramento,Sacramento,6.8,6.8,70.5,38.54375,-121.37769,A,AUTHORIZED FOR HIRE,https://safer.fmcsa.dot.gov/query.asp?searchtype=ANY&query_type=queryCarrierSnapshot&query_param=USDOT&query_string=341964,fmcsa_census_az4n-8mr2
KRETH INC,KRETH INC,,krethinc@att.net,2092742446,IONE,CA,95640,601 STATE HIGHWAY 124,344476,2,2,Sacramento,Sacramento,34.1,34.1,80.1,38.32525,-120.95579,C,PRIVATE PROPERTY;AUTHORIZED FOR HIRE,https://safer.fmcsa.dot.gov/query.asp?searchtype=ANY&query_type=queryCarrierSnapshot&query_param=USDOT&query_string=344476,fmcsa_census_az4n-8mr2
SUNNY SIDE FARMS,SUPER STORE INDUSTRIES,SUNNY SIDE FARMS,janderson@ssica.com,2098582010,LATHROP,CA,95330,16888 MCKINLEY AVENUE,344688,3,3,Bay,Oakland,52.3,54.3,52.3,37.80891,-121.31264,C,PRIVATE PROPERTY,https://safer.fmcsa.dot.gov/query.asp?searchtype=ANY&query_type=queryCarrierSnapshot&query_param=USDOT&query_string=344688,fmcsa_census_az4n-8mr2
CALVADA SALES COMPANY,CALVADA SALES COMPANY,,richorr@calvadafoods.com,9164416290,SACRAMENTO,CA,95811,450 RICHARDS BLVD,344977,13,13,Sacramento,Sacramento,0.9,0.9,68.9,38.58323,-121.4781,A,PRIVATE PROPERTY,https://safer.fmcsa.dot.gov/query.asp?searchtype=ANY&query_type=queryCarrierSnapshot&query_param=USDOT&query_string=344977,fmcsa_census_az4n-8mr2
CALVA PRODUCTS LLC,CALVA PRODUCTS LLC,,rgoodenbour@landolakes.com,2093391516,ACAMPO,CA,95220,4351 E WINERY RD,344979,3,3,Sacramento,Sacramento,29.9,29.9,62.7,38.20023,-121.23503,A,PRIVATE PROPERTY,https://safer.fmcsa.dot.gov/query.asp?searchtype=ANY&query_type=queryCarrierSnapshot&query_param=USDOT&query_string=344979,fmcsa_census_az4n-8mr2
STANLEY ELECTRIC MOTOR CO INC,STANLEY ELECTRIC MOTOR CO INC,,engrmech2@stanleyelectric.com,2094647321,STOCKTON,CA,95205,1520 E MINER AVE,345109,3,3,Stockton,Sacramento,44.5,44.5,56.3,37.96458,-121.25984,C,PRIVATE PROPERTY,https://safer.fmcsa.dot.gov/query.asp?searchtype=ANY&query_type=queryCarrierSnapshot&query_param=USDOT&query_string=345109,fmcsa_census_az4n-8mr2
JOY ENGINEERING,R AND J JOY INC,JOY ENGINEERING,ajoy@joyengineering.com,7753232246,BECKWORTH,CA,96129,81822 HIGHWAY 70,345119,19,16,Sacramento,Sacramento,103.3,103.3,171.5,39.78927,-120.35728,A,AUTHORIZED FOR HIRE,https://safer.fmcsa.dot.gov/query.asp?searchtype=ANY&query_type=queryCarrierSnapshot&query_param=USDOT&query_string=345119,fmcsa_census_az4n-8mr2
WHITE CAP READY MIX INC,WHITE CAP READY MIX INC,,whitecaprm@sbcglobal.net,5308324225,PORTOLA,CA,96122,73880 CA 70,346060,12,12,Sacramento,Sacramento,101.7,101.7,169.8,39.82523,-120.47705,A,PRIVATE PROPERTY,https://safer.fmcsa.dot.gov/query.asp?searchtype=ANY&query_type=queryCarrierSnapshot&query_param=USDOT&query_string=346060,fmcsa_census_az4n-8mr2
BUD LINE TRUCKING INC,BUD LINE TRUCKING INC,,admin@budlinetrucking.com,9163834860,SACRAMENTO,CA,95828,6501 FLORIN PERKINS ROAD,346979,11,11,Sacramento,Sacramento,8.3,8.3,67.1,38.48881,-121.39584,A,PRIVATE PROPERTY;AUTHORIZED FOR HIRE,https://safer.fmcsa.dot.gov/query.asp?searchtype=ANY&query_type=queryCarrierSnapshot&query_param=USDOT&query_string=346979,fmcsa_census_az4n-8mr2
MELVIN T WHEELER & SONS LP,MELVIN T WHEELER & SONS LP,,sherri@wheelerhay.com,2095269770,MODESTO,CA,95358,5301 WOODLAND AVE,350413,12,12,Stockton,Oakland,64.9,70.2,64.9,37.61261,-121.10857,A,PRIVATE PROPERTY;EXEMPT FOR HIRE,https://safer.fmcsa.dot.gov/query.asp?searchtype=ANY&query_type=queryCarrierSnapshot&query_param=USDOT&query_string=350413,fmcsa_census_az4n-8mr2
STOCKTON WHOLESALE LUMBER CO INC,STOCKTON WHOLESALE LUMBER CO INC,,joan@stocktonwholesalelumber.com,2099460282,STOCKTON,CA,95215,2908 BOZZANO RD,350430,4,4,Stockton,Sacramento,47.4,47.4,61.6,37.94942,-121.15728,C,PRIVATE PROPERTY,https://safer.fmcsa.dot.gov/query.asp?searchtype=ANY&query_type=queryCarrierSnapshot&query_param=USDOT&query_string=350430,fmcsa_census_az4n-8mr2
DAY-LEE FOODS INC,DAY-LEE FOODS INC,,jzotelo@day-lee.com,5628026864,UNION CITY,CA,94587,2900 FABER STREET UNIT 3,350530,29,29,Bay,Oakland,19.6,73.4,19.6,37.60316,-122.01864,A,PRIVATE PROPERTY,https://safer.fmcsa.dot.gov/query.asp?searchtype=ANY&query_type=queryCarrierSnapshot&query_param=USDOT&query_string=350530,fmcsa_census_az4n-8mr2
OZARK TRUCKING INC,OZARK TRUCKING INC,,safety@ozarkinc.com,9165615400,MCCLELLAN,CA,95652,4916 DUDLEY BLVD,351320,54,50,Sacramento,Sacramento,7.5,7.5,75.8,38.66298,-121.40111,A,AUTHORIZED FOR HIRE,https://safer.fmcsa.dot.gov/query.asp?searchtype=ANY&query_type=queryCarrierSnapshot&query_param=USDOT&query_string=351320,fmcsa_census_az4n-8mr2
MIKE LOWRIE TRUCKING INC,MIKE LOWRIE TRUCKING INC,,lowrietrkg@aol.com,7076783018,DIXON,CA,95620,7134 TREMONT ROAD,351560,145,145,Sacramento,Sacramento,18.4,18.4,50.5,38.41262,-121.75622,A,AUTHORIZED FOR HIRE;EXEMPT FOR HIRE,https://safer.fmcsa.dot.gov/query.asp?searchtype=ANY&query_type=queryCarrierSnapshot&query_param=USDOT&query_string=351560,fmcsa_census_az4n-8mr2
DILLARD ENVIRONMENTAL SERVICES,DILLARD TRUCKING INC,DILLARD ENVIRONMENTAL SERVICES,mroach@dillardenv.com,9256346850,BYRON,CA,94514,3120 CAMINO DIABLO,352045,22,22,Bay,Oakland,35.4,52.6,35.4,37.82637,-121.62255,A,AUTHORIZED FOR HIRE,https://safer.fmcsa.dot.gov/query.asp?searchtype=ANY&query_type=queryCarrierSnapshot&query_param=USDOT&query_string=352045,fmcsa_census_az4n-8mr2
TAHOE TRUCKEE SIERRA DISPOSAL CO INC,TAHOE TRUCKEE DISPOSAL CO INC,TAHOE TRUCKEE SIERRA DISPOSAL CO INC,cpark@waste101.com,5305837821,TRUCKEE,CA,96161,900 CABIN CREEK RD,352906,77,77,Sacramento,Sacramento,85.6,85.6,152.6,39.31309,-120.20778,A,PRIVATE PROPERTY,https://safer.fmcsa.dot.gov/query.asp?searchtype=ANY&query_type=queryCarrierSnapshot&query_param=USDOT&query_string=352906,fmcsa_census_az4n-8mr2
INTERSTATE SERVICES,STEVEN G WAYLAND,INTERSTATE SERVICES,swayland@earthlink.net,5106700999,STOCKTON,CA,95206,2719 BOEING WAY,354428,2,2,Stockton,Sacramento,46.0,46.0,47.2,37.91885,-121.41743,A,AUTHORIZED FOR HIRE,https://safer.fmcsa.dot.gov/query.asp?searchtype=ANY&query_type=queryCarrierSnapshot&query_param=USDOT&query_string=354428,fmcsa_census_az4n-8mr2
ELEMENTS MOUNTAIN COMPANY,ELEMENTS MOUNTAIN COMPANY,,jamie@elementsmtn.co,5305820300,TRUCKEE,CA,96161,17356 NORTHWOODS BLVD,355424,2,2,Sacramento,Sacramento,85.6,85.6,152.6,39.31309,-120.20778,A,PRIVATE PROPERTY,https://safer.fmcsa.dot.gov/query.asp?searchtype=ANY&query_type=queryCarrierSnapshot&query_param=USDOT&query_string=355424,fmcsa_census_az4n-8mr2
TANIMURA AND ANTLE INC,TANIMURA AND ANTLE INC,,urielperez@taproduce.com,8314554014,SPRECKLES,CA,93908,# 1 HARRIS ROAD,357043,179,121,Bay,Oakland,87.8,133.5,87.8,36.65174,-121.59944,A,"PRIVATE PROPERTY;PRIVATE PASSENGER, NON-BUSINESS;OTHER-AGRICULTURE;EXEMPT FOR HIRE",https://safer.fmcsa.dot.gov/query.asp?searchtype=ANY&query_type=queryCarrierSnapshot&query_param=USDOT&query_string=357043,fmcsa_census_az4n-8mr2
PARK GREENHOUSE INC,PARK GREENHOUSE INC,,parkgreenhouse@gmail.com,2095997545,RIPON,CA,95366,12813 E  WEST RIPON ROAD,357999,4,4,Sacramento,Sacramento,60.0,60.0,62.6,37.76277,-121.12528,C,PRIVATE PROPERTY,https://safer.fmcsa.dot.gov/query.asp?searchtype=ANY&query_type=queryCarrierSnapshot&query_param=USDOT&query_string=357999,fmcsa_census_az4n-8mr2
LIFT-U & MURRAY TRAILERS,HOGAN MANUFACTURING INC,LIFT-U & MURRAY TRAILERS,tylerl@hoganmfg.com,2098387323,ESCALON,CA,95320,1638 MAIN STREET,359728,3,3,Sacramento,Sacramento,58.6,58.6,69.1,37.8256,-121.00516,C,PRIVATE PROPERTY,https://safer.fmcsa.dot.gov/query.asp?searchtype=ANY&query_type=queryCarrierSnapshot&query_param=USDOT&query_string=359728,fmcsa_census_az4n-8mr2
VSS EMULTECH,VSS INTERNATIONAL INC,VSS EMULTECH,jessica.blanco@slurry.com,9162968887,WEST SACRAMENTO,CA,95691,3785 CHANNEL DRIVE,359994,131,110,Sacramento,Sacramento,6.2,6.2,67.8,38.62795,-121.59329,A,PRIVATE PROPERTY;AUTHORIZED FOR HIRE,https://safer.fmcsa.dot.gov/query.asp?searchtype=ANY&query_type=queryCarrierSnapshot&query_param=USDOT&query_string=359994,fmcsa_census_az4n-8mr2
SCHULER TRUCKING INC,SCHULER TRUCKING INC,,schtruck@aol.com,2098382417,ESCALON,CA,95320,1670 JERRY AVENUE,364988,2,2,Sacramento,Sacramento,58.6,58.6,69.1,37.8256,-121.00516,A,AUTHORIZED FOR HIRE,https://safer.fmcsa.dot.gov/query.asp?searchtype=ANY&query_type=queryCarrierSnapshot&query_param=USDOT&query_string=364988,fmcsa_census_az4n-8mr2
SME,SIERRA MOUNTAIN EXPRESS INC,SME,estallings@smetransport.com,8004264255,EL DORADO HILLS,CA,95762,1140 SUNCAST LANE,365516,8,8,Sacramento,Sacramento,24.3,24.3,89.4,38.68509,-121.06377,A,AUTHORIZED FOR HIRE,https://safer.fmcsa.dot.gov/query.asp?searchtype=ANY&query_type=queryCarrierSnapshot&query_param=USDOT&query_string=365516,fmcsa_census_az4n-8mr2
BERNARD A WEVER TRUCKING,BARRY M WEVER INC,BERNARD A WEVER TRUCKING,mike@wevertrucking.com,2095996666,RIPON,CA,95366,777 SOUTH LOCUST AVENUE,365887,9,9,Sacramento,Sacramento,60.0,60.0,62.6,37.76277,-121.12528,A,AUTHORIZED FOR HIRE;EXEMPT FOR HIRE,https://safer.fmcsa.dot.gov/query.asp?searchtype=ANY&query_type=queryCarrierSnapshot&query_param=USDOT&query_string=365887,fmcsa_census_az4n-8mr2
EVANS FARMING INC,EVANS FARMING INC,,office@evansfarming.com,5306952547,LIVE OAK,CA,95953,6266 PENNINGTON RD,367718,7,7,Sacramento,Sacramento,49.2,49.2,104.0,39.25902,-121.77683,C,PRIVATE PROPERTY;AUTHORIZED FOR HIRE;EXEMPT FOR HIRE,https://safer.fmcsa.dot.gov/query.asp?searchtype=ANY&query_type=queryCarrierSnapshot&query_param=USDOT&query_string=367718,fmcsa_census_az4n-8mr2
ORBIT MOVING & STORAGE INC,ORBIT MOVING & STORAGE INC,,orbitmoving@fostervanlines.com,5102343707,RICHMOND,CA,94804,167 SOUTH SECOND ST,369367,2,2,Bay,Oakland,8.6,65.0,8.6,37.91656,-122.34123,C,AUTHORIZED FOR HIRE,https://safer.fmcsa.dot.gov/query.asp?searchtype=ANY&query_type=queryCarrierSnapshot&query_param=USDOT&query_string=369367,fmcsa_census_az4n-8mr2
YOUNGMAN TRUCKING INC,YOUNGMAN TRUCKING INC,,youngmantrucking@yahoo.com,5303656288,ANDERSON,CA,96007,6895 EASTSIDE ROAD,370078,4,4,Sacramento,Sacramento,136.2,136.2,183.4,40.45803,-122.27783,A,AUTHORIZED FOR HIRE;EXEMPT FOR HIRE,https://safer.fmcsa.dot.gov/query.asp?searchtype=ANY&query_type=queryCarrierSnapshot&query_param=USDOT&query_string=370078,fmcsa_census_az4n-8mr2
CAL ELECTRO INC,CAL ELECTRO INC,,bkpr@calelectroinc.com,5302235937,REDDING,CA,96002,3710 ELECTRO WAY,371054,2,2,Sacramento,Sacramento,141.5,141.5,188.2,40.52783,-122.31875,C,PRIVATE PROPERTY;AUTHORIZED FOR HIRE,https://safer.fmcsa.dot.gov/query.asp?searchtype=ANY&query_type=queryCarrierSnapshot&query_param=USDOT&query_string=371054,fmcsa_census_az4n-8mr2
DEMAS FARMS,PETER DEMAS,DEMAS FARMS,tdemas3511@gmail.com,9167659054,NEWCASTLE,CA,95658,5755 FRUITVALE ROAD,371289,2,2,Sacramento,Sacramento,27.1,27.1,95.4,38.88118,-121.16901,A,PRIVATE PROPERTY,https://safer.fmcsa.dot.gov/query.asp?searchtype=ANY&query_type=queryCarrierSnapshot&query_param=USDOT&query_string=371289,fmcsa_census_az4n-8mr2
PREMIER REFRIGERATED TRANSPORT LLC,PREMIER REFRIGERATED TRANSPORT LLC,,mpolansky@montmush.com,2813773306,WATSONVILLE,CA,95076,260 WESTGATE DRIVE,372795,88,88,Bay,Oakland,65.7,113.9,65.7,36.94626,-121.75648,A,AUTHORIZED FOR HIRE,https://safer.fmcsa.dot.gov/query.asp?searchtype=ANY&query_type=queryCarrierSnapshot&query_param=USDOT&query_string=372795,fmcsa_census_az4n-8mr2
SUSANVILLE TOWING,BRIAN T PHILLIPS,SUSANVILLE TOWING,susanvilletowing@gmail.com,5302575114,SUSANVILLE,CA,96130,2955 JOHNSTONVILLE RD,375058,10,10,Sacramento,Sacramento,142.9,142.9,208.2,40.55176,-120.67567,A,AUTHORIZED FOR HIRE,https://safer.fmcsa.dot.gov/query.asp?searchtype=ANY&query_type=queryCarrierSnapshot&query_param=USDOT&query_string=375058,fmcsa_census_az4n-8mr2
A M & S TRANSPORTATION CO,A M & S TRANSPORTATION CO,,will@amstrans.com,5102080279,OAKLAND,CA,94607,1700 24TH ST,376457,138,69,Bay,Oakland,1.7,69.2,1.7,37.80721,-122.3015,A,AUTHORIZED FOR HIRE,https://safer.fmcsa.dot.gov/query.asp?searchtype=ANY&query_type=queryCarrierSnapshot&query_param=USDOT&query_string=376457,fmcsa_census_az4n-8mr2
W J DATECH INC,DAYTECH AUTOMOTIVE,W J DATECH INC,wjdaytech@sbcglobal.net,7074295009,FAIRFIELD,CA,94533,1249 ILLINOIS STREET # 2,377872,5,5,Bay,Sacramento,34.6,34.6,35.9,38.28075,-122.00638,C,OTHER-UNKNOWN;AUTHORIZED FOR HIRE,https://safer.fmcsa.dot.gov/query.asp?searchtype=ANY&query_type=queryCarrierSnapshot&query_param=USDOT&query_string=377872,fmcsa_census_az4n-8mr2
REBO TRUCKING SERVICE,STEPHEN M REBOTTARO,REBO TRUCKING SERVICE,srebotrucking@earthlink.net,7078945685,CLOVERDALE,CA,95425,121 W 1ST ST,380674,6,6,Bay,Oakland,82.5,86.3,82.5,38.82306,-123.06389,C,OTHER-UNKNOWN;AUTHORIZED FOR HIRE,https://safer.fmcsa.dot.gov/query.asp?searchtype=ANY&query_type=queryCarrierSnapshot&query_param=USDOT&query_string=380674,fmcsa_census_az4n-8mr2
BAY AREA CONTAINER INC,BAY AREA CONTAINER INC,,jocelyn@bayareacontainer.com,5104282565,RICHMOND,CA,94803,4936 SWEETWOOD DRIVE,382250,4,4,Bay,Oakland,10.7,60.7,10.7,37.95955,-122.28358,A,AUTHORIZED FOR HIRE,https://safer.fmcsa.dot.gov/query.asp?searchtype=ANY&query_type=queryCarrierSnapshot&query_param=USDOT&query_string=382250,fmcsa_census_az4n-8mr2
MASSOLO TRUCKING LLC,MASSOLO TRUCKING LLC,,snelsonyuma@gmail.com,8314247205,SALINAS,CA,93908,18765 GOULD ROAD,383185,19,19,Bay,Oakland,87.8,133.5,87.8,36.65174,-121.59944,A,AUTHORIZED FOR HIRE,https://safer.fmcsa.dot.gov/query.asp?searchtype=ANY&query_type=queryCarrierSnapshot&query_param=USDOT&query_string=383185,fmcsa_census_az4n-8mr2
BUCKE'S FEED & GRAIN,JOHN R BUCKE,BUCKE'S FEED & GRAIN,buckesfeed@sbcglobal.net,5308654427,ORLAND,CA,95963,1308 RAILROAD AVE,385042,3,3,Sacramento,Sacramento,89.7,89.7,133.5,39.73631,-122.25934,C,PRIVATE PROPERTY,https://safer.fmcsa.dot.gov/query.asp?searchtype=ANY&query_type=queryCarrierSnapshot&query_param=USDOT&query_string=385042,fmcsa_census_az4n-8mr2
IRRIGATION RENTALS INC,IRRIGATION RENTALS INC,,info@irrigationrentals.com,5305274001,RED BLUFF,CA,96080,535 ANTELOPE BLVD,387650,2,2,Sacramento,Sacramento,120.2,120.2,164.4,40.18189,-122.3771,A,PRIVATE PROPERTY,https://safer.fmcsa.dot.gov/query.asp?searchtype=ANY&query_type=queryCarrierSnapshot&query_param=USDOT&query_string=387650,fmcsa_census_az4n-8mr2
SIERRA CHEMICAL COMPANY,RICHARD K GOULD INC,SIERRA CHEMICAL COMPANY,sierrachem@aol.com,9163078366,WEST SACRAMENTO,CA,95691,788 NORTHPORT DRIVE,387653,3,3,Sacramento,Sacramento,6.2,6.2,67.8,38.62795,-121.59329,B,PRIVATE PROPERTY,https://safer.fmcsa.dot.gov/query.asp?searchtype=ANY&query_type=queryCarrierSnapshot&query_param=USDOT&query_string=387653,fmcsa_census_az4n-8mr2
CUSTOM FREIGHT SYSTEMS INC,CUSTOM FREIGHT SYSTEMS INC,,ssanchez@customfreight.com,5626963555,UNION CITY,CA,94587,30470 WHIPPLE RD. BUILDING B,388100,2,2,Bay,Oakland,19.6,73.4,19.6,37.60316,-122.01864,C,AUTHORIZED FOR HIRE,https://safer.fmcsa.dot.gov/query.asp?searchtype=ANY&query_type=queryCarrierSnapshot&query_param=USDOT&query_string=388100,fmcsa_census_az4n-8mr2
M BROCCO & SONS INC,M BROCCO & SONS INC,,broccotrucking@aol.com,7079967643,SONOMA,CA,95476,19660 ARNOLD DRIVE,388108,7,7,Bay,Oakland,32.5,57.4,32.5,38.24943,-122.46663,C,OTHER-DUST SUPRESSANT;AUTHORIZED FOR HIRE;EXEMPT FOR HIRE,https://safer.fmcsa.dot.gov/query.asp?searchtype=ANY&query_type=queryCarrierSnapshot&query_param=USDOT&query_string=388108,fmcsa_census_az4n-8mr2
SYSCO SAN FRANCISCO INC,SYSCO SAN FRANCISCO INC,,dot.compliance@sysco.com,3464223019,FREMONT,CA,94538,5900 STEWART AVE,388115,142,142,Bay,Oakland,27.1,78.8,27.1,37.50137,-121.95675,C,PRIVATE PROPERTY;AUTHORIZED FOR HIRE,https://safer.fmcsa.dot.gov/query.asp?searchtype=ANY&query_type=queryCarrierSnapshot&query_param=USDOT&query_string=388115,fmcsa_census_az4n-8mr2
WESTERN WOOD FABRICATORS INC,WESTERN WOOD FABRICATORS INC,,bstewart@wwftruss.com,9169915451,ELVERTA,CA,95626,3700 RIEGO RD,394698,6,6,Sacramento,Sacramento,10.6,10.6,77.6,38.73315,-121.46817,C,PRIVATE PROPERTY,https://safer.fmcsa.dot.gov/query.asp?searchtype=ANY&query_type=queryCarrierSnapshot&query_param=USDOT&query_string=394698,fmcsa_census_az4n-8mr2
HAYWARD ELECTRIC CO,HAYWARD ELECTRIC CO,,pjd@haywardelectric.com,5107832994,HAYWARD,CA,94545,3150 DIABLO AVE,395414,9,9,Bay,Oakland,15.8,75.7,15.8,37.6059,-122.12687,A,"PRIVATE PROPERTY;PRIVATE PASSENGER, NON-BUSINESS",https://safer.fmcsa.dot.gov/query.asp?searchtype=ANY&query_type=queryCarrierSnapshot&query_param=USDOT&query_string=395414,fmcsa_census_az4n-8mr2
STRACHAN APIARIES INC,STRACHAN APIARIES INC,,tami@strachanbees.com,5306743881,YUBA CITY,CA,95993,2522 TIERRA BUENA RD,396963,13,13,Sacramento,Sacramento,36.0,36.0,93.9,39.0825,-121.68011,C,PRIVATE PROPERTY,https://safer.fmcsa.dot.gov/query.asp?searchtype=ANY&query_type=queryCarrierSnapshot&query_param=USDOT&query_string=396963,fmcsa_census_az4n-8mr2
GREAT AMERICAN MOVERS,SACRAMENTO GAM ENTERPRISES INC,GREAT AMERICAN MOVERS,gamfallon@gmail.com,9163833288,SACRAMENTO,CA,95828,5901 E ALDER AVE,397786,4,4,Sacramento,Sacramento,8.3,8.3,67.1,38.48881,-121.39584,A,AUTHORIZED FOR HIRE,https://safer.fmcsa.dot.gov/query.asp?searchtype=ANY&query_type=queryCarrierSnapshot&query_param=USDOT&query_string=397786,fmcsa_census_az4n-8mr2
VIA ADVENTURES INC,VIA ADVENTURES INC,,lgonzalo@via-adventures.com,2093841315,MERCED,CA,95341,300 GROGAN AVE,399298,42,0,Stockton,Oakland,104.8,107.9,104.8,37.23105,-120.50107,A,"PRIVATE PASSENGER, BUSINESS;PRIVATE PASSENGER, NON-BUSINESS;AUTHORIZED FOR HIRE",https://safer.fmcsa.dot.gov/query.asp?searchtype=ANY&query_type=queryCarrierSnapshot&query_param=USDOT&query_string=399298,fmcsa_census_az4n-8mr2
COLUMBUS MANUFACTURING INC,COLUMBUS MANUFACTURING INC,,jrcontreras@columco.com,5109213400,HAYWARD,CA,94544,30977 SAN ANTONIO ST,399780,3,3,Bay,Oakland,16.6,72.3,16.6,37.63382,-122.0572,C,PRIVATE PROPERTY,https://safer.fmcsa.dot.gov/query.asp?searchtype=ANY&query_type=queryCarrierSnapshot&query_param=USDOT&query_string=399780,fmcsa_census_az4n-8mr2
ED JOHNSON & SONS TRUCKING,GERALDINE M JOHNSON,ED JOHNSON & SONS TRUCKING,pansx@sbcglobal.net,2095784495,MODESTO,CA,95358,2708 HOBART WAY,399815,2,2,Stockton,Oakland,64.9,70.2,64.9,37.61261,-121.10857,C,U. S. MAIL,https://safer.fmcsa.dot.gov/query.asp?searchtype=ANY&query_type=queryCarrierSnapshot&query_param=USDOT&query_string=399815,fmcsa_census_az4n-8mr2
CHRISTY TRUCK LINES LLC,CHRISTY TRUCK LINES LLC,,christytruckingline2@yahoo.com,4157253049,OAKLAND,CA,94621,8105 EDGE WATER DR STE 218,403379,3,3,Bay,Oakland,4.9,69.7,4.9,37.74827,-122.21683,A,AUTHORIZED FOR HIRE,https://safer.fmcsa.dot.gov/query.asp?searchtype=ANY&query_type=queryCarrierSnapshot&query_param=USDOT&query_string=403379,fmcsa_census_az4n-8mr2
BENCHMARK ELECTRONICS INC,BENCHMARK ELECTRONICS INC,,jeremy.grasty@bench.com,9253631110,CONCORD,CA,94520,4041 PIKE LN,403598,8,8,Bay,Oakland,18.2,50.2,18.2,37.99529,-122.04063,A,PRIVATE PROPERTY,https://safer.fmcsa.dot.gov/query.asp?searchtype=ANY&query_type=queryCarrierSnapshot&query_param=USDOT&query_string=403598,fmcsa_census_az4n-8mr2
CASSIL FREIGHT AND WAREHOUSING,CASSIL FREIGHT INC,CASSIL FREIGHT AND WAREHOUSING,info@cassilinc.com,7074377350,FAIRFIELD,CA,94533,2510 HUNTINGTON DR,405048,13,13,Bay,Sacramento,34.6,34.6,35.9,38.28075,-122.00638,A,AUTHORIZED FOR HIRE,https://safer.fmcsa.dot.gov/query.asp?searchtype=ANY&query_type=queryCarrierSnapshot&query_param=USDOT&query_string=405048,fmcsa_census_az4n-8mr2
P & R TRUCKING INC,P & R TRUCKING INC,,lorri@pandrtrucking.com,5108391602,BENICIA,CA,94510,3872 SPRIG DRIVE,405084,4,4,Bay,Oakland,21.6,48.2,21.6,38.09807,-122.13594,A,AUTHORIZED FOR HIRE,https://safer.fmcsa.dot.gov/query.asp?searchtype=ANY&query_type=queryCarrierSnapshot&query_param=USDOT&query_string=405084,fmcsa_census_az4n-8mr2
CASS INC,CASS INC,,sarah@customalloy.com,5108936476,OAKLAND,CA,94607,2730 PERALTA ST,409119,24,24,Bay,Oakland,1.7,69.2,1.7,37.80721,-122.3015,A,PRIVATE PROPERTY,https://safer.fmcsa.dot.gov/query.asp?searchtype=ANY&query_type=queryCarrierSnapshot&query_param=USDOT&query_string=409119,fmcsa_census_az4n-8mr2
SIMCO ELECTRONICS,SIMCO ELECTRONICS,,marianne.bloomberg@simco.com,4087349750,SANTA CLARA,CA,95054,3131 JAY STREET SUITE 100,410929,2,2,Bay,Oakland,33.0,86.0,33.0,37.39349,-121.96467,C,PRIVATE PROPERTY,https://safer.fmcsa.dot.gov/query.asp?searchtype=ANY&query_type=queryCarrierSnapshot&query_param=USDOT&query_string=410929,fmcsa_census_az4n-8mr2
SACRAMENTO MUNICIPAL UTILITY DISTRICT,SACRAMENTO MUNICIPAL UTILITY DISTRICT,,tiffany.navarrette@smud.org,9167325092,SACRAMENTO,CA,95817,6201 S STREET,411819,221,186,Sacramento,Sacramento,3.0,3.0,67.9,38.55055,-121.45637,B,"PRIVATE PASSENGER, BUSINESS;LOCAL GOVERNMENT",https://safer.fmcsa.dot.gov/query.asp?searchtype=ANY&query_type=queryCarrierSnapshot&query_param=USDOT&query_string=411819,fmcsa_census_az4n-8mr2
GARAVENTA ENTERPRISES INC,GARAVENTA ENTERPRISES INC,,tim.bredbenner@mdrr.com,9256713858,CONCORD,CA,94520,4050 MALLARD DR,414350,123,123,Bay,Oakland,18.2,50.2,18.2,37.99529,-122.04063,C,EXEMPT FOR HIRE,https://safer.fmcsa.dot.gov/query.asp?searchtype=ANY&query_type=queryCarrierSnapshot&query_param=USDOT&query_string=414350,fmcsa_census_az4n-8mr2
BUTLER AMUSEMENTS INC,BUTLER AMUSEMENTS INC,,karla@butleramusements.com,2098262234,SANTA NELLA,CA,95322,14049 HWY # 33,418811,55,55,Bay,Oakland,81.3,101.1,81.3,37.1662,-121.02443,A,PRIVATE PROPERTY,https://safer.fmcsa.dot.gov/query.asp?searchtype=ANY&query_type=queryCarrierSnapshot&query_param=USDOT&query_string=418811,fmcsa_census_az4n-8mr2
HALL'S EXCAVATING INC,HALL'S EXCAVATING INC,,office@halls-excavating.com,5302771094,TRUCKEE,CA,96161,10911 GLENSHIRE DRIVE,419504,3,3,Sacramento,Sacramento,85.6,85.6,152.6,39.31309,-120.20778,A,PRIVATE PROPERTY,https://safer.fmcsa.dot.gov/query.asp?searchtype=ANY&query_type=queryCarrierSnapshot&query_param=USDOT&query_string=419504,fmcsa_census_az4n-8mr2
BOB GOMES TRUCKING LLC,BOB GOMES TRUCKING LLC,,bglgtrucking@gmail.com,2095388634,HUGHSON,CA,95326,2931 TULLY RD,419516,3,3,Sacramento,Sacramento,76.9,76.9,78.8,37.58892,-120.85524,A,AUTHORIZED FOR HIRE,https://safer.fmcsa.dot.gov/query.asp?searchtype=ANY&query_type=queryCarrierSnapshot&query_param=USDOT&query_string=419516,fmcsa_census_az4n-8mr2
ANTONINI FREIGHT EXPRESS INC,ANTONINI FREIGHT EXPRESS INC,,jwforest@antoniniusa.com,2094669041,STOCKTON,CA,95215,207 N CARDINAL AVE,419639,95,95,Stockton,Sacramento,47.4,47.4,61.6,37.94942,-121.15728,A,PRIVATE PROPERTY;AUTHORIZED FOR HIRE;EXEMPT FOR HIRE,https://safer.fmcsa.dot.gov/query.asp?searchtype=ANY&query_type=queryCarrierSnapshot&query_param=USDOT&query_string=419639,fmcsa_census_az4n-8mr2
BEDROSIANS AND PARAGON TRUCKING,PARAGON INDUSTRIES INC,BEDROSIANS AND PARAGON TRUCKING,commdriver@bedrosians.com,5592755000,FRESNO,CA,93722,4285 N GOLDEN STATE BLVD,421535,65,65,Bay,Oakland,148.9,151.7,148.9,36.79936,-119.87479,A,PRIVATE PROPERTY;AUTHORIZED FOR HIRE,https://safer.fmcsa.dot.gov/query.asp?searchtype=ANY&query_type=queryCarrierSnapshot&query_param=USDOT&query_string=421535,fmcsa_census_az4n-8mr2
ALLIED PROPANE TRANSPORTATION,ALLIED PROPANE TRANSPORTATION INC,ALLIED PROPANE TRANSPORTATION,dustin@alliedprogas.com,5102377077,RICHMOND,CA,94804,5000 SEAPORT AVENUE,422543,3,0,Bay,Oakland,8.6,65.0,8.6,37.91656,-122.34123,B,PRIVATE PROPERTY;AUTHORIZED FOR HIRE,https://safer.fmcsa.dot.gov/query.asp?searchtype=ANY&query_type=queryCarrierSnapshot&query_param=USDOT&query_string=422543,fmcsa_census_az4n-8mr2
PAUL OIL COMPANY INC,PAUL OIL COMPANY INC,,cebker@pauloilcompany.com,2098472281,OAKDALE,CA,95361,524 N SIERRA AVE,423224,7,5,Sacramento,Sacramento,67.9,67.9,82.6,37.78724,-120.7592,A,EXEMPT FOR HIRE,https://safer.fmcsa.dot.gov/query.asp?searchtype=ANY&query_type=queryCarrierSnapshot&query_param=USDOT&query_string=423224,fmcsa_census_az4n-8mr2
SIERRA GOLD NURSERIES,SIERRA GOLD NURSERIES,,sandeep@sgtrees.com,5306741145,YUBA CITY,CA,95991,5320 GARDEN HIGHWAY,425914,3,3,Sacramento,Sacramento,29.0,29.0,90.0,38.99419,-121.59459,A,PRIVATE PROPERTY;OTHER-SHIPPING AG PRODUCTS,https://safer.fmcsa.dot.gov/query.asp?searchtype=ANY&query_type=queryCarrierSnapshot&query_param=USDOT&query_string=425914,fmcsa_census_az4n-8mr2
GO DURKEE LOGISTICS,DURKEE DRAYAGE COMPANY,GO DURKEE LOGISTICS,ap@durkeedrayage.com,7076810219,BENICIA,CA,94510,539 STONE ROAD,426556,11,11,Bay,Oakland,21.6,48.2,21.6,38.09807,-122.13594,A,AUTHORIZED FOR HIRE,https://safer.fmcsa.dot.gov/query.asp?searchtype=ANY&query_type=queryCarrierSnapshot&query_param=USDOT&query_string=426556,fmcsa_census_az4n-8mr2
PETALUMA POULTRY,PETALUMA ACQUISITION LLC,PETALUMA POULTRY,jlink@colemannatural.com,7077631904,PETALUMA,CA,94954,2700 LAKEVILLE HWY,427446,23,23,Bay,Oakland,33.6,62.3,33.6,38.23501,-122.55733,C,PRIVATE PROPERTY,https://safer.fmcsa.dot.gov/query.asp?searchtype=ANY&query_type=queryCarrierSnapshot&query_param=USDOT&query_string=427446,fmcsa_census_az4n-8mr2
U-HAUL,U-HAUL CO OF CALIFORNIA,U-HAUL,godfrey_hall@uhaul.com,6022636811,FREMONT,CA,94538,44511 GRIMMER BLVD,429332,163,163,Bay,Oakland,27.1,78.8,27.1,37.50137,-121.95675,A,PRIVATE PROPERTY;AUTHORIZED FOR HIRE,https://safer.fmcsa.dot.gov/query.asp?searchtype=ANY&query_type=queryCarrierSnapshot&query_param=USDOT&query_string=429332,fmcsa_census_az4n-8mr2
RINCON TOWING INC,RINCON TOWING INC,,rincontowing@yahoo.com,9164522303,SACRAMENTO,CA,95816,1762 SANTA YNEZ WAY,429945,5,5,Sacramento,Sacramento,1.7,1.7,68.7,38.57158,-121.46646,A,AUTHORIZED FOR HIRE,https://safer.fmcsa.dot.gov/query.asp?searchtype=ANY&query_type=queryCarrierSnapshot&query_param=USDOT&query_string=429945,fmcsa_census_az4n-8mr2
BLUE EAGLE CONTRACTING INC,BLUE EAGLE CONTRACTING INC,,service@blueeaglecontracting.net,5302720287,GRASS VALLEY,CA,95945,113 PRESLEY WAY  STE #8,430230,24,24,Sacramento,Sacramento,50.9,50.9,119.1,39.19639,-120.97229,A,AUTHORIZED FOR HIRE,https://safer.fmcsa.dot.gov/query.asp?searchtype=ANY&query_type=queryCarrierSnapshot&query_param=USDOT&query_string=430230,fmcsa_census_az4n-8mr2
BETTENCOURT TRANSPORT INC,BETTENCOURT TRANSPORT INC,,office.bettencourt@gmail.com,,ROCKLIN,CA,95677,4504 YANKEE HILL COURT  STE 100,430232,70,35,Sacramento,Sacramento,20.1,20.1,88.3,38.79107,-121.23485,A,AUTHORIZED FOR HIRE,https://safer.fmcsa.dot.gov/query.asp?searchtype=ANY&query_type=queryCarrierSnapshot&query_param=USDOT&query_string=430232,fmcsa_census_az4n-8mr2
GIESBRECHT & SONS TRUCKING INC,GIESBRECHT & SONS TRUCKING INC,,sunsetdryer@gmail.com,5309342330,GLENN,CA,95943,8069 COUNTY ROAD 48,430233,4,4,Sacramento,Sacramento,75.1,75.1,123.7,39.58481,-122.0323,C,PRIVATE PROPERTY;AUTHORIZED FOR HIRE,https://safer.fmcsa.dot.gov/query.asp?searchtype=ANY&query_type=queryCarrierSnapshot&query_param=USDOT&query_string=430233,fmcsa_census_az4n-8mr2
AL POMBO INC,AL POMBO INC,,pfatpombos@sbcglobal.net,5305874112,TRUCKEE,CA,96161,14825 OLD HWY 89,430276,4,4,Sacramento,Sacramento,85.6,85.6,152.6,39.31309,-120.20778,A,PRIVATE PROPERTY;EXEMPT FOR HIRE,https://safer.fmcsa.dot.gov/query.asp?searchtype=ANY&query_type=queryCarrierSnapshot&query_param=USDOT&query_string=430276,fmcsa_census_az4n-8mr2
PALISADES TAHOE RESORT LLC,PALISADES TAHOE RESORT LLC,,bradrobinson@palisadestahoe.com,5304527210,OLYMPIC VALLEY,CA,96146,1960 SQUAW VALLEY RD,430302,13,6,Sacramento,Sacramento,79.9,79.9,146.1,39.19805,-120.23779,A,"PRIVATE PROPERTY;PRIVATE PASSENGER, BUSINESS;AUTHORIZED FOR HIRE",https://safer.fmcsa.dot.gov/query.asp?searchtype=ANY&query_type=queryCarrierSnapshot&query_param=USDOT&query_string=430302,fmcsa_census_az4n-8mr2
PALESTRO DISTRIBUTION CENTER,PDC TRANS INC,PALESTRO DISTRIBUTION CENTER,zech@prismlogistics.com,9255830200,STOCKTON,CA,95215,4686 FRONTIER WAY,430317,12,12,Stockton,Sacramento,47.4,47.4,61.6,37.94942,-121.15728,C,AUTHORIZED FOR HIRE,https://safer.fmcsa.dot.gov/query.asp?searchtype=ANY&query_type=queryCarrierSnapshot&query_param=USDOT&query_string=430317,fmcsa_census_az4n-8mr2
MCCOY TRUCK TIRE SERVICE CENTER INC,MCCOY TRUCK TIRE SERVICE CENTER INC,,richard.g@mccoytrucktire.com,2095216221,MODESTO,CA,95351,1407 LONE PALM AVE,432048,3,3,Stockton,Oakland,70.8,71.5,70.8,37.6236,-120.99632,A,PRIVATE PROPERTY,https://safer.fmcsa.dot.gov/query.asp?searchtype=ANY&query_type=queryCarrierSnapshot&query_param=USDOT&query_string=432048,fmcsa_census_az4n-8mr2
NICK NIMMO HAY INC,NICK NIMMO HAY INC,,valleyagricultureoperations@gmail.com,2097454712,GALT,CA,95632,12651 E STOCKTON BLVD,432936,11,11,Sacramento,Sacramento,24.7,24.7,63.9,38.27445,-121.2592,A,PRIVATE PROPERTY;AUTHORIZED FOR HIRE;EXEMPT FOR HIRE,https://safer.fmcsa.dot.gov/query.asp?searchtype=ANY&query_type=queryCarrierSnapshot&query_param=USDOT&query_string=432936,fmcsa_census_az4n-8mr2
MCCORKLE TRUCKING,MCCORKLE FARMS INC,MCCORKLE TRUCKING,mccorklefarmsinc@gmail.com,5309343531,GLENN,CA,95943,2470 COUNTY ROAD WW,433119,28,28,Sacramento,Sacramento,75.1,75.1,123.7,39.58481,-122.0323,A,AUTHORIZED FOR HIRE,https://safer.fmcsa.dot.gov/query.asp?searchtype=ANY&query_type=queryCarrierSnapshot&query_param=USDOT&query_string=433119,fmcsa_census_az4n-8mr2
MUTUAL EXPRESS COMPANY,MUTUAL EXPRESS COMPANY,,hiko@mutualexpress.com,5104651711,OAKLAND,CA,94607,1700 WEST GRAND AVE,433293,14,14,Bay,Oakland,1.7,69.2,1.7,37.80721,-122.3015,A,AUTHORIZED FOR HIRE,https://safer.fmcsa.dot.gov/query.asp?searchtype=ANY&query_type=queryCarrierSnapshot&query_param=USDOT&query_string=433293,fmcsa_census_az4n-8mr2
RED TRUCK LINES INC,RED TRUCK LINES INC,,redtrucklines@gmail.com,2097432393,SMARTSVILLE,CA,95977,10178 LOGUE LANE,433297,2,2,Sacramento,Sacramento,42.5,42.5,108.6,39.17659,-121.29169,A,AUTHORIZED FOR HIRE,https://safer.fmcsa.dot.gov/query.asp?searchtype=ANY&query_type=queryCarrierSnapshot&query_param=USDOT&query_string=433297,fmcsa_census_az4n-8mr2
J M & R TRUCKING,MICHAEL R RUSSELL,J M & R TRUCKING,jmnrtrk@yahoo.com,5105686500,LEANDRO,CA,94577,554 HARLAN ST,435862,2,2,Bay,Oakland,8.5,70.3,8.5,37.71328,-122.16735,C,AUTHORIZED FOR HIRE,https://safer.fmcsa.dot.gov/query.asp?searchtype=ANY&query_type=queryCarrierSnapshot&query_param=USDOT&query_string=435862,fmcsa_census_az4n-8mr2
GSC LOGISTICS INC,GSC LOGISTICS INC,,fhur@gsclogistics.com,5108443700,OAKLAND,CA,94607,530 WATER STREET  5TH FLOOR,436112,2,2,Bay,Oakland,1.7,69.2,1.7,37.80721,-122.3015,A,AUTHORIZED FOR HIRE,https://safer.fmcsa.dot.gov/query.asp?searchtype=ANY&query_type=queryCarrierSnapshot&query_param=USDOT&query_string=436112,fmcsa_census_az4n-8mr2
SENSIENT NATURAL INGREDIENTS LLC,SENSIENT NATURAL INGREDIENTS LLC,,samuel.oeser@sensient.com,2096467739,TURLOCK,CA,95380,151 SOUTH WALNUT STREET,436417,2,2,Stockton,Oakland,79.7,83.6,79.7,37.4744,-120.87592,A,PRIVATE PROPERTY,https://safer.fmcsa.dot.gov/query.asp?searchtype=ANY&query_type=queryCarrierSnapshot&query_param=USDOT&query_string=436417,fmcsa_census_az4n-8mr2
RAMAR FOODS,RAMAR INTERNATIONAL FOODS CORP,RAMAR FOODS,calvinb@ramarfoods.com,9254399009,PITTSBURG,CA,94565,1101 RAILROAD LANE,437118,18,18,Bay,Oakland,24.6,45.1,24.6,38.01458,-121.90626,C,PRIVATE PROPERTY,https://safer.fmcsa.dot.gov/query.asp?searchtype=ANY&query_type=queryCarrierSnapshot&query_param=USDOT&query_string=437118,fmcsa_census_az4n-8mr2
IDEALEASE OF STOCKTON,INTERSTATE TRUCK CENTER LLC,IDEALEASE OF STOCKTON,mbuller@itctrucks.com,2099440909,STOCKTON,CA,95215,2110 S SINCLAIR,437459,71,71,Stockton,Sacramento,47.4,47.4,61.6,37.94942,-121.15728,A,OTHER-RENTAL/LEASING,https://safer.fmcsa.dot.gov/query.asp?searchtype=ANY&query_type=queryCarrierSnapshot&query_param=USDOT&query_string=437459,fmcsa_census_az4n-8mr2
GILLIES TRUCKING INC,GILLIES TRUCKING INC,,rosalind@gilliestrucking.com,2099486268,STOCKTON,CA,95205,3931 NEWTON ROAD,438076,26,26,Stockton,Sacramento,44.5,44.5,56.3,37.96458,-121.25984,A,AUTHORIZED FOR HIRE,https://safer.fmcsa.dot.gov/query.asp?searchtype=ANY&query_type=queryCarrierSnapshot&query_param=USDOT&query_string=438076,fmcsa_census_az4n-8mr2
WATERS WATER TRUCKS,DAVID L & MARTI L WATERS,WATERS WATER TRUCKS,watertrucks@sbcglobal.net,5305877994,TRUCKEE,CA,96161,10626 INDIAN PINE ROAD,438092,2,2,Sacramento,Sacramento,85.6,85.6,152.6,39.31309,-120.20778,A,PRIVATE PROPERTY,https://safer.fmcsa.dot.gov/query.asp?searchtype=ANY&query_type=queryCarrierSnapshot&query_param=USDOT&query_string=438092,fmcsa_census_az4n-8mr2
GOLDEN STATE LUMBER,GOLDEN STATE LUMBER INC,GOLDEN STATE LUMBER,bdeering@goldenstatelumber.com,7072064100,PETALUMA,CA,94952,855 LAKEVILLE ST STE 200,438620,99,99,Bay,Oakland,39.9,72.6,39.9,38.23455,-122.76038,C,PRIVATE PROPERTY,https://safer.fmcsa.dot.gov/query.asp?searchtype=ANY&query_type=queryCarrierSnapshot&query_param=USDOT&query_string=438620,fmcsa_census_az4n-8mr2
DENNIS FLOYD TRUCKING COMPANY INC,DENNIS FLOYD TRUCKING COMPANY INC,,barbara@dennisfloydtrucking.com,7075441747,SANTA ROSA,CA,95401,860 IRWIN LANE,440015,2,2,Bay,Oakland,52.8,70.8,52.8,38.44914,-122.79375,C,AUTHORIZED FOR HIRE,https://safer.fmcsa.dot.gov/query.asp?searchtype=ANY&query_type=queryCarrierSnapshot&query_param=USDOT&query_string=440015,fmcsa_census_az4n-8mr2
INDUSTRIAL DRAYAGE INC,INDUSTRIAL DRAYAGE INC,,orindalinda@aol.com,5108480400,ORINDA,CA,94563,28 EASTWOOD DR,440214,7,7,Bay,Oakland,7.0,61.3,7.0,37.87992,-122.18457,C,"PRIVATE PASSENGER, BUSINESS;PRIVATE PASSENGER, NON-BUSINESS;AUTHORIZED FOR HIRE",https://safer.fmcsa.dot.gov/query.asp?searchtype=ANY&query_type=queryCarrierSnapshot&query_param=USDOT&query_string=440214,fmcsa_census_az4n-8mr2
DMO TRANSPORTATION INC,DMO TRANSPORTATION INC,,dmog@aol.com,7078368996,WINDSOR,CA,95492,1230 SHILOH ROAD,443002,4,4,Bay,Oakland,58.3,71.8,58.3,38.52808,-122.82135,B,OTHER-UNKNOWN;AUTHORIZED FOR HIRE,https://safer.fmcsa.dot.gov/query.asp?searchtype=ANY&query_type=queryCarrierSnapshot&query_param=USDOT&query_string=443002,fmcsa_census_az4n-8mr2
DIVERSIFIED RECLAMATION SERVICES INC,DIVERSIFIED RECLAMATION SERVICES INC,,drstrucking15@gmail.com,4082025937,ALVISO,CA,95002,1341 ARCHER STREET,443719,6,6,Bay,Oakland,29.0,83.8,29.0,37.43867,-122.01158,C,AUTHORIZED FOR HIRE,https://safer.fmcsa.dot.gov/query.asp?searchtype=ANY&query_type=queryCarrierSnapshot&query_param=USDOT&query_string=443719,fmcsa_census_az4n-8mr2
THE PRODUCE EXCHANGE INC,THE PRODUCE EXCHANGE INC,,paul.keating@lipmanfamilyfarms.com,,LIVERMORE,CA,94551,7407 SOUTHFRONT RD,444649,10,10,Bay,Oakland,28.8,59.1,28.8,37.7505,-121.74905,A,PRIVATE PROPERTY;AUTHORIZED FOR HIRE,https://safer.fmcsa.dot.gov/query.asp?searchtype=ANY&query_type=queryCarrierSnapshot&query_param=USDOT&query_string=444649,fmcsa_census_az4n-8mr2
PATTERSON HEAVY HAUL INC,PATTERSON HEAVY HAUL INC,,slp.patterson@gmail.com,2093273428,LINDEN,CA,95236,19160 STATE RTE 26,445094,2,2,Sacramento,Sacramento,45.9,45.9,69.7,38.02973,-121.02389,A,AUTHORIZED FOR HIRE,https://safer.fmcsa.dot.gov/query.asp?searchtype=ANY&query_type=queryCarrierSnapshot&query_param=USDOT&query_string=445094,fmcsa_census_az4n-8mr2
AUTO CHLOR SYSTEM,AUTO CHLOR SYSTEM OF WASHINGTON INC,AUTO CHLOR SYSTEM,eddy@autochlor.com,6506973085,MOUNTAIN VIEW,CA,94043,450 FERGUSON DRIVE,447964,57,57,Bay,Oakland,29.1,86.6,29.1,37.41403,-122.07068,A,PRIVATE PROPERTY,https://safer.fmcsa.dot.gov/query.asp?searchtype=ANY&query_type=queryCarrierSnapshot&query_param=USDOT&query_string=447964,fmcsa_census_az4n-8mr2
L B LIGHTS WEST INC,L B LIGHTS WEST INC,,victor@lblwpro.com,2093330996,LODI,CA,95240,2488 MAGGIO CIRCLE,448517,3,3,Stockton,Sacramento,37.4,37.4,65.0,38.11439,-121.14466,A,PRIVATE PROPERTY,https://safer.fmcsa.dot.gov/query.asp?searchtype=ANY&query_type=queryCarrierSnapshot&query_param=USDOT&query_string=448517,fmcsa_census_az4n-8mr2
SIERRA NEVADA BREWING CO INC,SIERRA NEVADA BREWING CO INC,,bvarner@sierranevada.com,5308933520,CHICO,CA,95928,1075 E 20TH ST,448708,17,17,Sacramento,Sacramento,78.6,78.6,132.0,39.68571,-121.84408,A,PRIVATE PROPERTY,https://safer.fmcsa.dot.gov/query.asp?searchtype=ANY&query_type=queryCarrierSnapshot&query_param=USDOT&query_string=448708,fmcsa_census_az4n-8mr2
MALIBU BOATS LLC,MALIBU BOATS LLC,,mandyb@malibuboats.com,2094319074,MERCED,CA,95341,1 MALIBU CT,452990,2,2,Stockton,Oakland,104.8,107.9,104.8,37.23105,-120.50107,C,PRIVATE PROPERTY,https://safer.fmcsa.dot.gov/query.asp?searchtype=ANY&query_type=queryCarrierSnapshot&query_param=USDOT&query_string=452990,fmcsa_census_az4n-8mr2
HILLTOP RANCH INC,HILLTOP RANCH,HILLTOP RANCH INC,randy.meza@hilltopranch.com,2098741875,BALLICO,CA,95303,13890 LOONEY RD,453822,20,20,Sacramento,Sacramento,88.9,88.9,90.5,37.47029,-120.67108,C,PRIVATE PROPERTY;AUTHORIZED FOR HIRE,https://safer.fmcsa.dot.gov/query.asp?searchtype=ANY&query_type=queryCarrierSnapshot&query_param=USDOT&query_string=453822,fmcsa_census_az4n-8mr2
CUMPTON TRUCKING INC,CUMPTON TRUCKING INC,,wendy@cumptontrucking.com,5306048252,RED BLUFF,CA,96080,13565 HIGHWAY 36 EAST,454921,8,8,Sacramento,Sacramento,120.2,120.2,164.4,40.18189,-122.3771,A,AUTHORIZED FOR HIRE;EXEMPT FOR HIRE,https://safer.fmcsa.dot.gov/query.asp?searchtype=ANY&query_type=queryCarrierSnapshot&query_param=USDOT&query_string=454921,fmcsa_census_az4n-8mr2
RECOATING WEST INC,RECOATING WEST INC,,brian@recoatingwest.com,9166528290,SACRAMENTO,CA,95811,1317 NORTH B ST,455334,4,4,Sacramento,Sacramento,0.9,0.9,68.9,38.58323,-121.4781,A,PRIVATE PROPERTY,https://safer.fmcsa.dot.gov/query.asp?searchtype=ANY&query_type=queryCarrierSnapshot&query_param=USDOT&query_string=455334,fmcsa_census_az4n-8mr2
P J HELICOPTERS INC,P J HELICOPTERS INC,,fuel@pjhelicopters.com,5305275059,RED BLUFF,CA,96080,903 LANGLEY WAY,456377,46,29,Sacramento,Sacramento,120.2,120.2,164.4,40.18189,-122.3771,A,PRIVATE PROPERTY,https://safer.fmcsa.dot.gov/query.asp?searchtype=ANY&query_type=queryCarrierSnapshot&query_param=USDOT&query_string=456377,fmcsa_census_az4n-8mr2
SAXCO INTERNATIONAL LLC,SAXCO INTERNATIONAL LLC,,jhorton@saxco.com,7073243680,FAIRFIELD,CA,94520,2975 CORDELIA ROAD,457047,20,20,Bay,Oakland,18.2,50.2,18.2,37.99529,-122.04063,A,PRIVATE PROPERTY;AUTHORIZED FOR HIRE,https://safer.fmcsa.dot.gov/query.asp?searchtype=ANY&query_type=queryCarrierSnapshot&query_param=USDOT&query_string=457047,fmcsa_census_az4n-8mr2
RAMOS ENVIR0NMENTAL SERVICES,RAMOS OIL RECYCLERS INC,RAMOS ENVIR0NMENTAL SERVICES,johnv@ramosenv.com,9163715747,WEST SACRAMENTO,CA,95691,1515 SOUTH RIVER ROAD,457908,11,5,Sacramento,Sacramento,6.2,6.2,67.8,38.62795,-121.59329,B,PRIVATE PROPERTY;AUTHORIZED FOR HIRE,https://safer.fmcsa.dot.gov/query.asp?searchtype=ANY&query_type=queryCarrierSnapshot&query_param=USDOT&query_string=457908,fmcsa_census_az4n-8mr2
STEVE E PARK APIARIES INC,STEVE E PARK APIARIES INC,,stevepark@frontiernet.net,5305493500,PALO CEDRO,CA,96073,11226 DESCHUTES RD,458289,2,2,Sacramento,Sacramento,144.5,144.5,193.4,40.60307,-122.18666,A,OTHER-APIARY EQUIPMENT;PRIVATE PROPERTY,https://safer.fmcsa.dot.gov/query.asp?searchtype=ANY&query_type=queryCarrierSnapshot&query_param=USDOT&query_string=458289,fmcsa_census_az4n-8mr2
BRENT REDMOND TRANSPORTATION INC,BRENT REDMOND TRANSPORTATION INC,,elena@brentredmond.com,,HOLLISTER,CA,95023,1800 LANA WAY,458298,31,31,Bay,Oakland,80.3,116.3,80.3,36.90205,-121.35078,A,AUTHORIZED FOR HIRE,https://safer.fmcsa.dot.gov/query.asp?searchtype=ANY&query_type=queryCarrierSnapshot&query_param=USDOT&query_string=458298,fmcsa_census_az4n-8mr2
S D SEIFERT COMPANY INC,S D SEIFERT COMPANY INC,,sdseifertco@yahoo.com,2093670850,ACAMPO,CA,95220,9450 E COLLIER RD,458856,4,4,Sacramento,Sacramento,29.9,29.9,62.7,38.20023,-121.23503,A,AUTHORIZED FOR HIRE,https://safer.fmcsa.dot.gov/query.asp?searchtype=ANY&query_type=queryCarrierSnapshot&query_param=USDOT&query_string=458856,fmcsa_census_az4n-8mr2
MEE'S MOVING & STORAGE INC,MEE'S MOVING & STORAGE INC,,wbrown@meemoving.com,9166358262,RANCHO CORDOVA,CA,95742,2561 GRENNAN CT,460965,4,4,Sacramento,Sacramento,15.8,15.8,78.9,38.57778,-121.20179,C,PRIVATE PROPERTY;AUTHORIZED FOR HIRE,https://safer.fmcsa.dot.gov/query.asp?searchtype=ANY&query_type=queryCarrierSnapshot&query_param=USDOT&query_string=460965,fmcsa_census_az4n-8mr2
AUTO CARE TOWING AND LIVING THE DREAM RACING,KJRB INC,AUTO CARE TOWING AND LIVING THE DREAM RACING,autocaretowing@aol.com,8317280384,WATSONVILLE,CA,95076,250 KEARNEY EXT,462694,22,22,Bay,Oakland,65.7,113.9,65.7,36.94626,-121.75648,C,PRIVATE PROPERTY;AUTHORIZED FOR HIRE,https://safer.fmcsa.dot.gov/query.asp?searchtype=ANY&query_type=queryCarrierSnapshot&query_param=USDOT&query_string=462694,fmcsa_census_az4n-8mr2
SITE CONSTRUCTORS INC,SITE CONSTRUCTORS INC,,sburt@siteconstructors.net,5303428545,CHICO,CA,95973,55 INDEPENDENCE CIR STE 105,463172,5,4,Sacramento,Sacramento,92.4,92.4,146.1,39.89162,-121.84198,C,PRIVATE PROPERTY,https://safer.fmcsa.dot.gov/query.asp?searchtype=ANY&query_type=queryCarrierSnapshot&query_param=USDOT&query_string=463172,fmcsa_census_az4n-8mr2
